"STATION","NAME","LATITUDE","LONGITUDE","ELEVATION","DATE","AWND","AWND_ATTRIBUTES","CDSD","CDSD_ATTRIBUTES","CLDD","CLDD_ATTRIBUTES","DP01","DP01_ATTRIBUTES","DP10","DP10_ATTRIBUTES","DSND","DSND_ATTRIBUTES","DSNW","DSNW_ATTRIBUTES","DT00","DT00_ATTRIBUTES","DT32","DT32_ATTRIBUTES","DX32","DX32_ATTRIBUTES","DX70","DX70_ATTRIBUTES","DX90","DX90_ATTRIBUTES","EMNT","EMNT_ATTRIBUTES","EMSD","EMSD_ATTRIBUTES","EMSN","EMSN_ATTRIBUTES","EMXP","EMXP_ATTRIBUTES","EMXT","EMXT_ATTRIBUTES","EVAP","EVAP_ATTRIBUTES","HDSD","HDSD_ATTRIBUTES","HN01","HN01_ATTRIBUTES","HN02","HN02_ATTRIBUTES","HN03","HN03_ATTRIBUTES","HN04","HN04_ATTRIBUTES","HN05","HN05_ATTRIBUTES","HN06","HN06_ATTRIBUTES","HTDD","HTDD_ATTRIBUTES","HX01","HX01_ATTRIBUTES","HX02","HX02_ATTRIBUTES","HX03","HX03_ATTRIBUTES","HX04","HX04_ATTRIBUTES","HX05","HX05_ATTRIBUTES","HX06","HX06_ATTRIBUTES","LN01","LN01_ATTRIBUTES","LN02","LN02_ATTRIBUTES","LN03","LN03_ATTRIBUTES","LN04","LN04_ATTRIBUTES","LN05","LN05_ATTRIBUTES","LN06","LN06_ATTRIBUTES","LX01","LX01_ATTRIBUTES","LX02","LX02_ATTRIBUTES","LX03","LX03_ATTRIBUTES","LX04","LX04_ATTRIBUTES","LX05","LX05_ATTRIBUTES","LX06","LX06_ATTRIBUTES","MN01","MN01_ATTRIBUTES","MN02","MN02_ATTRIBUTES","MN03","MN03_ATTRIBUTES","MN04","MN04_ATTRIBUTES","MN05","MN05_ATTRIBUTES","MN06","MN06_ATTRIBUTES","MNPN","MNPN_ATTRIBUTES","MX01","MX01_ATTRIBUTES","MX02","MX02_ATTRIBUTES","MX03","MX03_ATTRIBUTES","MX04","MX04_ATTRIBUTES","MX05","MX05_ATTRIBUTES","MX06","MX06_ATTRIBUTES","MXPN","MXPN_ATTRIBUTES","PRCP","PRCP_ATTRIBUTES","PSUN","PSUN_ATTRIBUTES","SNOW","SNOW_ATTRIBUTES","TAVG","TAVG_ATTRIBUTES","TMAX","TMAX_ATTRIBUTES","TMIN","TMIN_ATTRIBUTES","TSUN","TSUN_ATTRIBUTES","WDF2","WDF2_ATTRIBUTES","WDF5","WDF5_ATTRIBUTES","WDMV","WDMV_ATTRIBUTES","WSF2","WSF2_ATTRIBUTES","WSF5","WSF5_ATTRIBUTES"
"USC00122184","DEPUTY 1 WNW, IN US","38.7997","-85.6724","193.5","2004-10",,,,,,,"9",",0","7",",0","0",",0","0",",0",,,,,,,,,,,,,"0",",,0,31,+","0.0",",,0,31,+","106.2",",,0,19,",,,,,,,,,,,,,,,,,,,,,,,,,,,,,,,,,,,,,,,,,,,,,,,,,,,,,,,,,,,,,,,,,,,,,,,,,,,,,,,,,,,,,"157.3",",,,0",,,"0",",,,0",,,,,,,,,,,,,,,,,,
"USC00128442","STENDAL, IN US","38.26714","-87.14299","198.1","2004-10",,,"654.0","0","5.4","1,0","12",",0","9",",0","0",",0","0",",0","0","1,0","0","1,0","0",",0","16",",0","0",",0","0.6","1,0,24,","0",",,0,31,+","0.0",",,0,31,+","54.9",",,0,27,","27.2",",0,30,+",,,"121.4","0",,,,,,,,,,,,,"106.6",",0",,,,,,,,,,,,,,,,,,,,,,,,,,,,,,,,,,,,,,,,,,,,,,,,,,,,,,,,,,,,,,,,,"217.7",",,,0",,,"0",",,,0","15.0","1,0","20.6",",,,0","9.4","1,,,0",,,,,,,,,,,,
"USC00126023","MUNCIE, IN US","40.1825","-85.3497","294.4","2004-10",,,,,,,"11",",0","6",",0","0",",0","0",",0",,,,,,,,,,,,,"0",",,0,31,+","0.0",",,0,31,+","18.0",",,0,13,",,,,,,,,,,,,,,,,,,,,,,,,,,,,,,,,,,,,,,,,,,,,,,,,,,,,,,,,,,,,,,,,,,,,,,,,,,,,,,,,,,,,,"70.6",",,,0",,,"0",",,,0",,,,,,,,,,,,,,,,,,
"USC00125055","LIGONIER 2 S, IN US","41.43111","-85.58972","282.2","2004-10",,,,,,,"6",",0","5",",0","0",",0","0",",0",,,,,,,,,,,,,"0",",,0,31,+","0.0",",,0,31,+","15.0",",,0,30,",,,,,,,,,,,,,,,,,,,,,,,,,,,,,,,,,,,,,,,,,,,,,,,,,,,,,,,,,,,,,,,,,,,,,,,,,,,,,,,,,,,,,"38.2",",,,0",,,"0",",,,0",,,,,,,,,,,,,,,,,,
"USC00124642","KNIGHTSTOWN 2 ENE, IN US","39.8075","-85.4877","303.9","2004-10",,,,,,,"8",",0","6",",0","0",",0","0",",0",,,,,,,,,,,,,"0",",,0,31,+","0.0",",,0,31,+","55.9",",,0,14,",,,,,,,,,,,,,,,,,,,,,,,,,,,,,,,,,,,,,,,,,,,,,,,,,,,,,,,,,,,,,,,,,,,,,,,,,,,,,,,,,,,,,"112.8",",,,0",,,"0",",,,0",,,,,,,,,,,,,,,,,,
"USC00128723","TERRE HAUTE INDIANA STATE, IN US","39.4708","-87.408","154.5","2004-10",,,,,"0.3","2,0","13","2,0","7","2,0","0","2,0","0","2,0","0","2,0","3","2,0","0","2,0","13","2,0","0","2,0","-0.6","2,0,17,","0","2,,0,31,+","0.0","2,,0,31,+","41.1","2,,0,18,","28.9","2,0,08,",,,"174.6","0","15.0",",,,2,3,2","18.3",",,,2,5,2",,,,,,,,,"155.0","2,0","26.1",",,,2,3,2","23.3",",,,2,5,2",,,,,,,,,"6.1",",,,2,3,2","11.1",",,,2,5,2",,,,,,,,,"11.1",",,,2,3,2","13.3",",,,2,5,2",,,,,,,,,"11.9",",,,2,3,2","15.0",",,,2,5,2",,,,,,,,,,,"18.6",",,,2,3,2","18.3",",,,2,5,2",,,,,,,,,,,"151.1","2,,,0",,,"0","2,,,0","13.0","2,0","20.0","2,,,0","6.0","2,,,0",,,,,,,,,,,,
"USC00127755","SALEM, IN US","38.6157","-86.0855","239.3","2004-10",,,,,,,"12",",0","10",",0","0",",0","0",",0",,,,,,,,,,,,,"0",",,0,31,+","0.0",",,0,31,+","63.5",",,0,19,",,,,,,,,,,,,,,,,,,,,,,,,,,,,,,,,,,,,,,,,,,,,,,,,,,,,,,,,,,,,,,,,,,,,,,,,,,,,,,,,,,,,,"166.7",",,,0",,,"0",",,,0",,,,,,,,,,,,,,,,,,
"USC00124244","INDIANA DUNES NATIONAL PARK, IN US","41.63178","-87.08803","208.2","2004-10",,,"341.2","0","3.1","1,0","9",",0","6",",0","0",",0","0",",0","0","1,0","1","1,0","0","1,0","6","1,0","0","1,0","0.0","1,0,17,","0",",,0,31,+","0.0",",,0,31,+","49.5",",,0,15,","26.1","1,0,30,",,,"271.7","0",,,,,,,,,,,,,"198.6","1,0",,,,,,,,,,,,,,,,,,,,,,,,,,,,,,,,,,,,,,,,,,,,,,,,,,,,,,,,,,,,,,,,,"98.2",",,,0",,,"0",",,,0","11.8","1,0","17.0","1,,,0","6.6","1,,,0",,,,,,,,,,,,
"USC00127875","SCOTTSBURG, IN US","38.68861","-85.785","173.7","2004-10",,,,,,,"11","5,0","8","5,0","0","5,0","0","5,0",,,,,,,,,,,,,"0","5,,0,31,+","0.0","5,,0,31,+","95.3","5,,0,18,",,,,,,,,,,,,,,,,,,,,,,,,,,,,,,,,,,,,,,,,,,,,,,,,,,,,,,,,,,,,,,,,,,,,,,,,,,,,,,,,,,,,,"172.7","5,,,0",,,"0","5,,,0",,,,,,,,,,,,,,,,,,
"USC00129138","WABASH, IN US","40.7917","-85.8258","202.7","2004-10",,,,,"0.0",",0","10",",0","10",",0","0",",0","0",",0","0",",0","5",",0","0",",0","8",",0","0",",0","-1.7",",0,06,+","0",",,0,31,+","0.0",",,0,31,+","26.2",",,0,19,","25.0",",0,30,+",,,"284.0","0",,,,,,,,,,,,,"225.3",",0",,,,,,,,,,,,,,,,,,,,,,,,,,,,,,,,,,,,,,,,,,,,,,,,,,,,,,,,,,,,,,,,,"76.6",",,,0",,,"0",",,,0","11.1",",0","17.5",",,,0","4.6",",,,0",,,,,,,,,,,,
"USC00120200","ANGOLA, IN US","41.6639","-85.0183","310.9","2004-10",,,"227.4","0","0.0","2,0","8","1,0","6","1,0","0",",0","0",",0","0","2,0","6","2,0","0","1,0","6","1,0","0","1,0","-1.7","2,0,06,+","0",",,0,31,+","0.0",",,0,31,+","18.3","1,,0,24,","23.3","1,0,09,+",,,"336.5","0",,,,,,,,,,,,,"243.0","1,0",,,,,,,,,,,,,,,,,,,,,,,,,,,,,,,,,,,,,,,,,,,,,,,,,,,,,,,,,,,,,,,,,"59.0","1,,,0",,,"0",",,,0","9.9","2,0","15.9","1,,,0","4.0","2,,,0",,,,,,,,,,,,
"USC00121256","CANNELTON, IN US","37.8994","-86.7072","122.5","2004-10",,,,,,,"11",",0","9",",0","0",",0","0",",0",,,,,,,,,,,,,"0",",,0,31,+","0.0",",,0,31,+","33.0",",,0,19,",,,,,,,,,,,,,,,,,,,,,,,,,,,,,,,,,,,,,,,,,,,,,,,,,,,,,,,,,,,,,,,,,,,,,,,,,,,,,,,,,,,,,"91.1",",,,0",,,"0",",,,0",,,,,,,,,,,,,,,,,,
"USC00125337","MARION 2 N, IN US","40.58","-85.6586","240.8","2004-10",,,"324.4","0","0.0","2,0","12",",0","8",",0","0",",0","0",",0","0","2,0","1","2,0","0",",0","9",",0","0",",0","0.0","2,0,17,","0",",,0,31,+","0.0",",,0,31,+","31.0",",,0,18,","25.0",",0,29,+",,,"263.3","0",,,,,,,,,,,,,"206.9",",0",,,,,,,,,,,,,,,,,,,,,,,,,,,,,,,,,,,,,,,,,,,,,,,,,,,,,,,,,,,,,,,,,"69.9",",,,0",,,"0",",,,0","11.4","2,0","17.7",",,,0","5.1","2,,,0",,,,,,,,,,,,
"USC00128967","J.T. MYERS LOCKS AND DAM, IN US","37.7952","-87.993","103.6","2004-10",,,,,"7.0","2,0","14",",0","8",",0","0",",0","0",",0","0","1,0","0","1,0","0","1,0","21","1,0","0","1,0","2.2","1,0,03,","0",",,0,31,+","0.0",",,0,31,+","26.7",",,0,15,","29.4","1,0,30,",,,,,,,,,,,,,,,,,"68.4","1,0",,,,,,,,,,,,,,,,,,,,,,,,,,,,,,,,,,,,,,,,,,,,,,,,,,,,,,,,,,,,,,,,,"117.3",",,,0",,,"0",",,,0","16.3","2,0","22.1","1,,,0","10.4","1,,,0",,,,,,,,,,,,
"USC00124249","INDIANAPOLIS EAGLE CREEK 4 NNE, IN US","39.90746","-86.28911","249.3","2004-10",,,,,,,"11",",0","9",",0","0",",0","0",",0",,,,,,,,,,,,,"0",",,0,31,+","0.0",",,0,31,+","20.3",",,0,19,",,,,,,,,,,,,,,,,,,,,,,,,,,,,,,,,,,,,,,,,,,,,,,,,,,,,,,,,,,,,,,,,,,,,,,,,,,,,,,,,,,,,,"94.2",",,,0",,,"0",",,,0",,,,,,,,,,,,,,,,,,
"USC00125613","MIDDLETOWN 2 W, IN US","40.063","-85.5777","286.5","2004-10",,,,,,,"9",",0","6",",0","0",",0","0",",0",,,,,,,,,,,,,"0",",,0,31,+","0.0",",,0,31,+","18.8",",,0,13,",,,,,,,,,,,,,,,,,,,,,,,,,,,,,,,,,,,,,,,,,,,,,,,,,,,,,,,,,,,,,,,,,,,,,,,,,,,,,,,,,,,,,"66.6",",,,0",,,"0",",,,0",,,,,,,,,,,,,,,,,,
"USC00127999","SHELBYVILLE SEWAGE PLANT, IN US","39.5282","-85.7914","229.2","2004-10",,,"512.0","0","1.4","1,0","6",",0","6",",0","0",",0","0",",0","0","1,0","2","1,0","0",",0","13",",0","0",",0","0.0","1,0,17,+","0",",,0,31,+","0.0",",,0,31,+","41.9",",,0,19,","26.1",",0,30,+",,,"210.2","0",,,,,,,,,,,,,"178.7",",0",,,,,,,,,,,,,,,,,,,,,,,,,,,,,,,,,,,,,,,,,,,,,,,,,,,,,,,,,,,,,,,,,"78.0",",,,0",,,"0",",,,0","12.5","1,0","19.0",",,,0","5.9","1,,,0",,,,,,,,,,,,
"USC00124527","KENTLAND, IN US","40.75917","-87.43528","211.8","2004-10",,,,,,,,,,,,,,,,,,,,,,,,,,,,,,,,,,,,,,,,,,,,,,,,,,,,,,,,,,,,,,,,,,,,,,,,,,,,,,,,,,,,,,,,,,,,,,,,,,,,,,,,,,,,,,,,,,,,,,,,,,,,,,,,,,,,,,,,,,,,
"USC00126705","PAOLI, IN US","38.5555","-86.4858","170.7","2004-10",,,,,"2.2","2,0","8",",0","8",",0","0",",0","0",",0","0","2,0","7","2,0","0",",0","13",",0","0",",0","-2.2","2,0,17,","0",",,0,31,+","0.0",",,0,31,+","62.7",",,0,19,","26.7",",0,30,+",,,"194.7","0",,,,,,,,,,,,,"153.3",",0",,,,,,,,,,,,,,,,,,,,,,,,,,,,,,,,,,,,,,,,,,,,,,,,,,,,,,,,,,,,,,,,,"177.8",",,,0",,,"0",",,,0","13.2","2,0","19.8",",,,0","6.6","2,,,0",,,,,,,,,,,,
"USC00121417","CHALMERS 5 W, IN US","40.6653","-86.955","219.5","2004-10",,,,,,,"12",",0","8",",0","0",",0","0",",0",,,,,,,,,,,,,"0",",,0,31,+","0.0",",,0,31,+","24.1",",,0,19,",,,,,,,,,,,,,,,,,,,,,,,,,,,,,,,,,,,,,,,,,,,,,,,,,,,,,,,,,,,,,,,,,,,,,,,,,,,,,,,,,,,,,"80.3",",,,0",,,"0",",,,0",,,,,,,,,,,,,,,,,,
"USC00121814","CORYDON, IN US","38.218","-86.1183","217.9","2004-10",,,,,,,"8",",0","8",",0",,,,,,,,,,,,,,,,,,,,,"61.0",",,0,19,",,,,,,,,,,,,,,,,,,,,,,,,,,,,,,,,,,,,,,,,,,,,,,,,,,,,,,,,,,,,,,,,,,,,,,,,,,,,,,,,,,,,,"137.5",",,,0",,,,,,,,,,,,,,,,,,,,,,
"USC00128290","SPENCER, IN US","39.28385","-86.77048","167.3","2004-10",,,"408.7","0","3.9","1,0","13",",0","7",",0","0",",0","0",",0","0","1,0","4","1,0","0",",0","13",",0","0",",0","-2.2","1,0,17,","0",",,0,31,+","0.0",",,0,31,+","51.3",",,0,19,","25.6",",0,08,",,,"220.7","0",,,,,,,,,,,,,"172.4",",0",,,,,,,,,,,,,,,,,,,,,,,,,,,,,,,,,,,,,,,,,,,,,,,,,,,,,,,,,,,,,,,,,"140.6",",,,0",,,"0",",,,0","12.7","1,0","18.9",",,,0","6.4","1,,,0",,,,,,,,,,,,
"USW00014848","SOUTH BEND AIRPORT, IN US","41.70722","-86.31628","235.4","2004-10","3.9",",X","349.6","0","1.7",",0","8",",0","6",",0","0",",0","0",",0","0",",0","1",",0","0",",0","6",",0","0",",0","-0.6",",0,05,","0",",,0,31,+","0.0",",,0,31,+","12.4",",,0,23,","24.4",",0,29,",,,"281.2","0",,,,,,,,,,,,,"220.7",",0",,,,,,,,,,,,,,,,,,,,,,,,,,,,,,,,,,,,,,,,,,,,,,,,,,,,,,,,,,,,,,,,,"50.1",",,,0",,,"0",",,,0","11.3",",0","16.7",",,,0","5.9",",,,0",,,"240",",X","250",",X",,,"19.7",",X","24.6",",X"
"USC00127083","POSEYVILLE, IN US","38.1655","-87.7852","131.1","2004-10",,,,,,,"12",",0","10",",0","0",",0","0",",0",,,,,,,,,,,,,"0",",,0,31,+","0.0",",,0,31,+","41.4",",,0,19,",,,,,,,,,,,,,,,,,,,,,,,,,,,,,,,,,,,,,,,,,,,,,,,,,,,,,,,,,,,,,,,,,,,,,,,,,,,,,,,,,,,,,"178.0",",,,0",,,"0",",,,0",,,,,,,,,,,,,,,,,,
"USC00127482","ROCHESTER, IN US","41.0665","-86.2096","231.6","2004-10",,,"353.1","0","2.2",",0","11",",0","7",",0","0",",0","0",",0","0",",0","4",",0","0",",0","7",",0","0",",0","-1.1",",0,18,+","0",",,0,31,+","0.0",",,0,31,+","19.6",",,0,14,","25.6",",0,08,",,,"290.5","0",,,,,,,,,,,,,"219.6",",0",,,,,,,,,,,,,,,,,,,,,,,,,,,,,,,,,,,,,,,,,,,,,,,,,,,,,,,,,,,,,,,,,"75.3",",,,0",,,"0",",,,0","11.3",",0","17.5",",,,0","5.1",",,,0",,,,,,,,,,,,
"USC00127125","PRINCETON 1 W, IN US","38.3566","-87.5905","146.3","2004-10",,,"720.4","0","7.3",",0","10",",0","7",",0","0",",0","0",",0","0",",0","0",",0","0",",0","13",",0","0",",0","0.6",",0,17,","0",",,0,31,+","0.0",",,0,31,+","43.2",",,0,18,","28.3",",0,07,",,,"121.5","0",,,,,,,,,,,,,"104.8",",0",,,,,,,,,,,,,,,,,,,,,,,,,,,,,,,,,,,,,,,,,,,,,,,,,,,,,,,,,,,,,,,,,"169.1",",,,0",,,"0",",,,0","15.2",",0","20.1",",,,0","10.2",",,,0",,,,,,,,,,,,
"USC00128698","TELL CITY, IN US","37.953","-86.7747","118.9","2004-10",,,"778.1","0","9.4",",0","12",",0","10",",0","0",",0","0",",0","0",",0","0",",0","0",",0","20",",0","0",",0","4.4",",0,18,+","0",",,0,31,+","0.0",",,0,31,+","46.0",",,0,19,","28.3",",0,08,",,,"80.6","0",,,,,,,,,,,,,"75.4",",0",,,,,,,,,,,,,,,,,,,,,,,,,,,,,,,,,,,,,,,,,,,,,,,,,,,,,,,,,,,,,,,,,"136.6",",,,0",,,"0",",,,0","16.2",",0","21.4",",,,0","11.0",",,,0",,,,,,,,,,,,
"USC00124372","JASPER, IN US","38.3856","-86.9406","137.2","2004-10",,,,,,,"9",",0","8",",0","0",",0","0",",0",,,,,,,,,,,,,"0",",,0,31,+","0.0",",,0,31,+","61.7",",,0,19,",,,,,,,,,,,,,,,,,,,,,,,,,,,,,,,,,,,,,,,,,,,,,,,,,,,,,,,,,,,,,,,,,,,,,,,,,,,,,,,,,,,,,"165.5",",,,0",,,"0",",,,0",,,,,,,,,,,,,,,,,,
"USC00127646","RUSHVILLE, IN US","39.6042","-85.4532","289.0","2004-10",,,"451.8","0","3.9","1,0","11",",0","6",",0","0",",0","0",",0","0","1,0","0","1,0","0",",0","10",",0","0",",0","0.6","1,0,16,+","0",",,0,31,+","0.0",",,0,31,+","44.5",",,0,18,","26.1",",0,29,",,,"230.4","0",,,,,,,,,,,,,"186.0",",0",,,,,,,,,,,,,,,,,,,,,,,,,,,,,,,,,,,,,,,,,,,,,,,,,,,,,,,,,,,,,,,,,"100.9",",,,0",,,"0",",,,0","12.4","1,0","18.2",",,,0","6.5","1,,,0",,,,,,,,,,,,
"USC00126435","NORTH VERNON 2 ESE, IN US","39.00098","-85.59956","219.2","2004-10",,,"531.7","0","7.5",",0","13",",0","6",",0","0",",0","0",",0","0",",0","2",",0","0",",0","15",",0","0",",0","-1.7",",0,17,","0",",,0,31,+","0.0",",,0,31,+","73.7",",,0,18,","27.2",",0,29,",,,"160.1","0",,,,,,,,,,,,,"138.7",",0",,,,,,,,,,,,,,,,,,,,,,,,,,,,,,,,,,,,,,,,,,,,,,,,,,,,,,,,,,,,,,,,,"138.3",",,,0",,,"0",",,,0","14.1",",0","19.8",",,,0","8.4",",,,0",,,,,,,,,,,,
"USC00122594","ELKHART PUBLIC WORKS AND UT, IN US","41.6778","-86.0022","228.6","2004-10",,,,,,,"10",",0","6",",0","0",",0","0",",0",,,,,,,,,,,,,"0",",,0,31,+","0.0",",,0,31,+","9.4",",,0,02,",,,,,,,,,,,,,,,,,,,,,,,,,,,,,,,,,,,,,,,,,,,,,,,,,,,,,,,,,,,,,,,,,,,,,,,,,,,,,,,,,,,,,"37.9",",,,0",,,"0",",,,0",,,,,,,,,,,,,,,,,,
"USC00126830","PERRYSVILLE 4 WNW, IN US","40.0738","-87.5066","186.2","2004-10",,,"498.0","0","7.2",",0","13",",0","9",",0","0",",0","0",",0","0",",0","4",",0","0",",0","12",",0","0",",0","-2.8",",0,06,+","0",",,0,31,+","0.0",",,0,31,+","27.4",",,0,18,","28.9",",0,08,",,,"227.7","0",,,,,,,,,,,,,"176.4",",0",,,,,,,,,,,,,,,,,,,,,,,,,,,,,,,,,,,,,,,,,,,,,,,,,,,,,,,,,,,,,,,,,"91.5",",,,0",,,"0",",,,0","12.9",",0","19.4",",,,0","6.4",",,,0",,,,,,,,,,,,
"USC00127522","ROCKVILLE, IN US","39.7594","-87.2269","210.0","2004-10",,,,,"6.4",",0","13",",0","10",",0","0",",0","0",",0","0",",0","2",",0","0",",0","13",",0","0",",0","-1.1",",0,17,","0",",,0,31,+","0.0",",,0,31,+","31.8",",,0,18,","27.2",",0,07,",,,,,,,,,,,,,,,,,"153.3",",0",,,,,,,,,,,,,,,,,,,,,,,,,,,,,,,,,,,,,,,,,,,,,,,,,,,,,,,,,,,,,,,,,"108.6",",,,0",,,"0",",,,0","13.6",",0","19.2",",,,0","8.0",",,,0",,,,,,,,,,,,
"USC00120177","ANDERSON 1 N, IN US","40.1167","-85.68131","256.9","2004-10",,,"411.8","0","3.3","1,0","11",",0","6",",0","0",",0","0",",0","0","1,0","2","1,0","0",",0","9",",0","0",",0","0.0","1,0,05,+","0",",,0,31,+","0.0",",,0,31,+","48.5",",,0,13,","25.0",",0,29,+",,,"236.2","0",,,,,,,,,,,,,"191.2",",0",,,,,,,,,,,,,,,,,,,,,,,,,,,,,,,,,,,,,,,,,,,,,,,,,,,,,,,,,,,,,,,,,"101.9",",,,0",,,"0",",,,0","12.1","1,0","17.7",",,,0","6.6","1,,,0",,,,,,,,,,,,
"USC00120331","ATTICA 2 E, IN US","40.2838","-87.1963","221.6","2004-10",,,,,,,"11",",0","8",",0","0",",0","0","1,0",,,,,,,,,,,,,"0",",,0,31,+","0.0","1,,0,31,+","20.1",",,0,13,",,,,,,,,,,,,,,,,,,,,,,,,,,,,,,,,,,,,,,,,,,,,,,,,,,,,,,,,,,,,,,,,,,,,,,,,,,,,,,,,,,,,,"88.3",",,,0",,,"0","1,,,0",,,,,,,,,,,,,,,,,,
"USC00128732","TERRE HAUTE WATER CORP, IN US","39.4755","-87.4193","137.8","2004-10",,,,,,,"14",",0","10",",0","0",",0","0",",0",,,,,,,,,,,,,"0",",,0,31,+","0.0",",,0,31,+","40.1",",,0,18,",,,,,,,,,,,,,,,,,,,,,,,,,,,,,,,,,,,,,,,,,,,,,,,,,,,,,,,,,,,,,,,,,,,,,,,,,,,,,,,,,,,,,"159.7",",,,0",,,"0",",,,0",,,,,,,,,,,,,,,,,,
"USC00124657","KNOX WWTP, IN US","41.3053","-86.6285","210.3","2004-10",,,,,,,"10",",0","5",",0","0",",0","0",",0",,,,,,,,,,,,,"0",",,0,31,+","0.0",",,0,31,+","15.7",",,0,24,",,,,,,,,,,,,,,,,,,,,,,,,,,,,,,,,,,,,,,,,,,,,,,,,,,,,,,,,,,,,,,,,,,,,,,,,,,,,,,,,,,,,,"41.4",",,,0",,,"0",",,,0",,,,,,,,,,,,,,,,,,
"USC00124778","LAKE VILLAGE 7 SE, IN US","41.08586","-87.38331","205.7","2004-10",,,,,,,"10",",0","9",",0","0",",0","0",",0",,,,,,,,,,,,,"0",",,0,31,+","0.0",",,0,31,+","13.0",",,0,23,",,,,,,,,,,,,,,,,,,,,,,,,,,,,,,,,,,,,,,,,,,,,,,,,,,,,,,,,,,,,,,,,,,,,,,,,,,,,,,,,,,,,,"53.9",",,,0",,,"0",",,,0",,,,,,,,,,,,,,,,,,
"USC00126437","VERNON 1 ENE, IN US","38.9886","-85.5859","228.6","2004-10",,,,,,,,,,,"0",",0","0",",0",,,,,,,,,,,,,"0",",,0,31,+","0.0",",,0,31,+",,,,,,,,,,,,,,,,,,,,,,,,,,,,,,,,,,,,,,,,,,,,,,,,,,,,,,,,,,,,,,,,,,,,,,,,,,,,,,,,,,,,,,,"140.5",",a,,0",,,"0",",,,0",,,,,,,,,,,,,,,,,,
"USC00121940","CROWN POINT 1 N, IN US","41.43889","-87.35448","212.1","2004-10",,,,,,,"9",",0","8",",0","0",",0","0",",0",,,,,,,,,,,,,"0",",,0,31,+","0.0",",,0,31,+","18.0",",,0,15,",,,,,,,,,,,,,,,,,,,,,,,,,,,,,,,,,,,,,,,,,,,,,,,,,,,,,,,,,,,,,,,,,,,,,,,,,,,,,,,,,,,,,"64.7",",,,0",,,"0",",,,0",,,,,,,,,,,,,,,,,,
"USW00094895","MUNCIE DELAWARE CO AIRPORT, IN US","40.23451","-85.39356","285.2","2004-10","3.5",",W","444.1","W","4.1",",W","12",",W","6",",W",,,,,"0",",W","2",",W","0",",W","9",",W","0",",W","-1.1",",W,05,",,,,,"25.4",",,W,13,","25.6",",W,29,+",,,"254.9","W",,,,,,,,,,,,,"203.1",",W",,,,,,,,,,,,,,,,,,,,,,,,,,,,,,,,,,,,,,,,,,,,,,,,,,,,,,,,,,,,,,,,,"85.6",",,,W",,,,,"11.9",",W","18.1",",,,W","5.8",",,,W",,,"270",",W","280",",W",,,"11.2",",W","14.3",",W"
"USC00121303","CARMEL 3 E, IN US","39.9617","-86.0585","229.2","2004-10",,,,,"6.1",",0","11",",0","6",",0","0",",0","0",",0","0",",0","0",",0","0",",0","10",",0","0",",0","0.6",",0,05,+","0",",,0,31,+","0.0",",,0,31,+","23.4",",,0,13,","25.6",",0,30,+",,,,,,,,,,,,,,,,,"182.6",",0",,,,,,,,,,,,,,,,,,,,,,,,,,,,,,,,,,,,,,,,,,,,,,,,,,,,,,,,,,,,,,,,,"85.2",",,,0",,,"0",",,,0","12.6",",0","18.4",",,,0","6.9",",,,0",,,,,,,,,,,,
"USC00120852","BOONVILLE 1 S, IN US","38.0302","-87.2736","121.9","2004-10",,,"749.8","0","10.3",",0","12",",0","10",",0","0",",0","0",",0","0",",0","0",",0","0",",0","15",",0","0",",0","0.6",",0,17,","0",",,0,31,+","0.0",",,0,31,+","45.0",",,0,18,","28.3",",0,07,",,,"101.8","0",,,,,,,,,,,,,"90.2",",0",,,,,,,,,,,,,,,,,,,,,,,,,,,,,,,,,,,,,,,,,,,,,,,,,,,,,,,,,,,,,,,,,"192.3",",,,0",,,"0",",,,0","15.8",",0","21.3",",,,0","10.2",",,,0",,,,,,,,,,,,
"USC00123207","GARRETT 1 S, IN US","41.3366","-85.1198","265.2","2004-10",,,,,"1.7",",0","8",",0","4",",0","0",",0","0",",0","0",",0","0",",0","0",",0","11",",0","0",",0","0.6",",0,06,+","0",",,0,31,+","0.0",",,0,31,+","8.9",",,0,18,","26.7",",0,08,",,,"203.9","0",,,,,,,,,,,,,"178.9",",0",,,,,,,,,,,,,,,,,,,,,,,,,,,,,,,,,,,,,,,,,,,,,,,,,,,,,,,,,,,,,,,,,"32.6",",,,0",,,"0",",,,0","12.6",",0","18.6",",,,0","6.6",",,,0",,,,,,,,,,,,
"USC00122638","ELWOOD, IN US","40.2873","-85.8453","264.0","2004-10",,,,,"3.3","1,0","10",",0","7",",0","0",",0","0",",0","0","1,0","4","1,0","0",",0","10",",0","0",",0","-1.7","1,0,06,+","0",",,0,31,+","0.0",",,0,31,+","19.1",",,0,19,","25.6",",0,30,+",,,"255.0","0",,,,,,,,,,,,,"204.0",",0",,,,,,,,,,,,,,,,,,,,,,,,,,,,,,,,,,,,,,,,,,,,,,,,,,,,,,,,,,,,,,,,,"81.1",",,,0",,,"0",",,,0","11.7","1,0","18.0",",,,0","5.3","1,,,0",,,,,,,,,,,,
"USC00120858","BOSWELL 4 WNW, IN US","40.535","-87.4531","235.3","2004-10",,,,,"1.7",",0","10",",0","8",",0","0",",0","0",",0","0",",0","4",",0","0",",0","9",",0","0",",0","-2.8",",0,05,+","0",",,0,31,+","0.0",",,0,31,+","19.1",",,0,24,","26.1",",0,08,",,,,,,,,,,,,,,,,,"220.1",",0",,,,,,,,,,,,,,,,,,,,,,,,,,,,,,,,,,,,,,,,,,,,,,,,,,,,,,,,,,,,,,,,,"91.4",",,,0",,,"0",",,,0","11.3",",0","17.8",",,,0","4.8",",,,0",,,,,,,,,,,,
"USC00127370","RICHMOND WATER WORKS, IN US","39.8544","-84.8779","306.3","2004-10",,,"436.6","0","3.9","3,0","9",",0","5",",0","0",",0","0",",0","0","1,0","0","1,0","0","2,0","11","2,0","0","2,0","0.6","1,0,06,","0",",,0,31,+","0.0",",,0,31,+","24.9",",,0,18,","26.1","2,0,08,",,,"198.9","0",,,,,,,,,,,,,"165.1","2,0",,,,,,,,,,,,,,,,,,,,,,,,,,,,,,,,,,,,,,,,,,,,,,,,,,,,,,,,,,,,,,,,,"77.2",",,,0",,,"0",",,,0","12.5","3,0","18.7","2,,,0","6.3","1,,,0",,,,,,,,,,,,
"USC00129670","WINAMAC 2 SSE, IN US","41.0267","-86.5866","210.3","2004-10",,,,,"2.5",",0","13",",0","7",",0","0","1,0","0",",0","0",",0","2",",0","0",",0","8",",0","0",",0","-1.7",",0,17,+","0","1,,0,31,+","0.0",",,0,31,+","15.5",",,0,24,","25.6",",0,30,+","63","1,,,0",,,"12.8",",,,0,3,2","14.4",",,,0,5,2",,,,,,,,,"208.3",",0","22.2",",,,0,3,2","18.3",",,,0,5,2",,,,,,,,,"2.8",",,,0,3,2","5.6",",,,0,5,2",,,,,,,,,"7.2",",,,0,3,2","8.9",",,,0,5,2",,,,,,,,,"8.3",",,,0,3,2","10.6",",,,0,5,2",,,,,,,,,,,"15.2",",,,0,3,2","13.7",",,,0,5,2",,,,,,,,,,,"71.2",",,,0",,,"0",",,,0","11.7",",0","17.9",",,,0","5.4",",,,0",,,,,,,"302.0","1,,,0",,,,
"USC00129430","WEST LAFAYETTE 6 NW, IN US","40.475","-86.9919","215.8","2004-10",,,"388.4","0","0.0",",0","11",",0","8",",0","0",",0","0",",0","0",",0","5",",0","0",",0","10",",0","0",",0","-4.4",",0,05,","0",",,0,31,+","0.0",",,0,31,+","14.2",",,0,13,","27.8",",0,08,","90",",,,0","285.7","0","16.7",",,,0,3,1","18.9",",,,0,3,2","17.8","1,,,0,3,3","16.7","1,,,0,5,2",,,,,"203.6",",0","27.2",",,,0,3,1","25.6",",,,0,3,2","21.1","1,,,0,3,3","18.3","2,,,0,5,2",,,,,"2.2",",,,0,3,1","7.2",",,,0,3,2","7.8","1,,,0,3,3","9.4","1,,,0,5,2",,,,,"7.8",",,,0,3,1","10.0",",,,0,3,2","9.4","1,,,0,3,3","10.0","2,,,0,5,2",,,,,"9.8",",,,0,3,1","13.1",",,,0,3,2","13.2","1,,,0,3,3","12.7","1,,,0,5,2",,,,,"6.4",",,,0","18.3",",,,0,3,1","18.4",",,,0,3,2","16.1","1,,,0,3,3","15.2","2,,,0,5,2",,,,,"17.4",",,,0","72.7",",,,0",,,"0",",,,0","11.8",",0","18.6",",,,0","5.0",",,,0",,,,,,,"4794.0",",,,0",,,,
"USC00127099","PRAIRIE CREEK 2 S, IN US","39.248","-87.51","167.6","2004-10",,,,,,,"14",",0","7",",0","0",",0","0",",0",,,,,,,,,,,,,"0",",,0,31,+","0.0",",,0,31,+","59.9",",,0,19,",,,,,,,,,,,,,,,,,,,,,,,,,,,,,,,,,,,,,,,,,,,,,,,,,,,,,,,,,,,,,,,,,,,,,,,,,,,,,,,,,,,,,"163.2",",,,0",,,"0",",,,0",,,,,,,,,,,,,,,,,,
"USC00126164","NEW CASTLE 3 SW, IN US","39.8942","-85.3953","302.1","2004-10",,,,,"2.5",",0","8",",0","5",",0","0",",0","0",",0","0",",0","7",",0","0",",0","10",",0","0",",0","-1.7",",0,04,+","0",",,0,31,+","0.0",",,0,31,+","20.1",",,0,19,","25.0",",0,30,",,,"322.3","0",,,,,,,,,,,,,"231.8",",0",,,,,,,,,,,,,,,,,,,,,,,,,,,,,,,,,,,,,,,,,,,,,,,,,,,,,,,,,,,,,,,,,"56.7",",,,0",,,"0",",,,0","10.9",",0","17.4",",,,0","4.5",",,,0",,,,,,,,,,,,
"USC00129557","WHITESTOWN, IN US","39.9962","-86.3543","286.8","2004-10",,,"524.5","0","8.9",",0","7",",0","6",",0","0",",0","0",",0","0",",0","3",",0","0",",0","15",",0","0",",0","-1.1",",0,05,","0",",,0,31,+","0.0",",,0,31,+","19.3",",,0,18,","26.7",",0,07,",,,"192.5","0",,,,,,,,,,,,,"159.5",",0",,,,,,,,,,,,,,,,,,,,,,,,,,,,,,,,,,,,,,,,,,,,,,,,,,,,,,,,,,,,,,,,,"66.6",",,,0",,,"0",",,,0","13.5",",0","19.6",",,,0","7.3",",,,0",,,,,,,,,,,,
"USC00129678","WINCHESTER AAP 3, IN US","40.1715","-84.9207","338.3","2004-10",,,"391.1","0","5.0","3,0","11","2,0","6","2,0","0","1,0","0","2,0","0","2,0","2","2,0","0","3,0","10","3,0","0","3,0","0.0","2,0,05,+","0","1,,0,31,+","0.0","2,,0,31,+","17.0","2,,0,19,","25.0","3,0,30,+",,,"229.7","0",,,,,,,,,,,,,"166.8","3,0",,,,,,,,,,,,,,,,,,,,,,,,,,,,,,,,,,,,,,,,,,,,,,,,,,,,,,,,,,,,,,,,,"70.1",",a,,0",,,"0","2,,,0","12.6","3,0","18.5","3,,,0","6.7","2,,,0",,,,,,,,,,,,
"USC00120182","ANDERSON WATERWORKS, IN US","40.1051","-85.6716","265.2","2004-10",,,,,,,"11",",0","6",",0","0",",0","0",",0",,,,,,,,,,,,,"0",",,0,31,+","0.0",",,0,31,+","43.7",",,0,13,",,,,,,,,,,,,,,,,,,,,,,,,,,,,,,,,,,,,,,,,,,,,,,,,,,,,,,,,,,,,,,,,,,,,,,,,,,,,,,,,,,,,,"105.8",",,,0",,,"0",",,,0",,,,,,,,,,,,,,,,,,
"USC00124782","LAKEVILLE, IN US","41.5269","-86.2692","256.3","2004-10",,,"273.1","0","1.4","4,0","10",",0","5",",0","0",",0","0","1,0","0","3,0","3","3,0","0","2,0","6","2,0","0","2,0","-2.2","3,0,05,","0",",,0,31,+","0.0","1,,0,31,+","9.4",",,0,24,","23.9","2,0,30,",,,"300.1","0",,,,,,,,,,,,,"209.8","2,0",,,,,,,,,,,,,,,,,,,,,,,,,,,,,,,,,,,,,,,,,,,,,,,,,,,,,,,,,,,,,,,,,"37.9",",,,0",,,"0","1,,,0","10.7","4,0","16.7","2,,,0","4.6","3,,,0",,,,,,,,,,,,
"USC00127255","REELSVILLE 4 SW, IN US","39.5022","-87.0033","191.4","2004-10",,,,,,,"8",",0","7",",0","0",",0","0",",0",,,,,,,,,,,,,"0",",,0,31,+","0.0",",,0,31,+","28.7",",,0,19,",,,,,,,,,,,,,,,,,,,,,,,,,,,,,,,,,,,,,,,,,,,,,,,,,,,,,,,,,,,,,,,,,,,,,,,,,,,,,,,,,,,,,"141.0",",,,0",,,"0",",,,0",,,,,,,,,,,,,,,,,,
"USC00121030","BROOKVILLE, IN US","39.42387","-85.01445","192.0","2004-10",,,,,,,"12",",0","5",",0","0",",0","0",",0",,,,,"0",",0","16",",0","0",",0",,,"0",",,0,31,+","0.0",",,0,31,+","65.5",",,0,19,","27.2",",0,08,+",,,,,,,,,,,,,,,,,,,,,,,,,,,,,,,,,,,,,,,,,,,,,,,,,,,,,,,,,,,,,,,,,,,,,,,,,,,,,,,,,,,"115.6",",,,0",,,"0",",,,0",,,"20.1",",,,0",,,,,,,,,,,,,,
"USC00125237","MADISON SEWAGE PLANT, IN US","38.7369","-85.3941","140.2","2004-10",,,"545.5","0","5.9",",0","11",",0","8",",0","0",",0","0",",0","0",",0","0",",0","0",",0","13",",0","0",",0","2.2",",0,17,","0",",,0,31,+","0.0",",,0,31,+","127.0",",,0,18,","26.1",",0,29,",,,"137.9","0",,,,,,,,,,,,,"122.8",",0",,,,,,,,,,,,,,,,,,,,,,,,,,,,,,,,,,,,,,,,,,,,,,,,,,,,,,,,,,,,,,,,,"195.7",",,,0",,,"0",",,,0","14.6",",0","19.7",",,,0","9.4",",,,0",,,,,,,,,,,,
"USC00124662","KOKOMO 3 WSW, IN US","40.4582","-86.1758","250.5","2004-10",,,"417.7","0","2.5","1,0","12",",0","7",",0","0",",0","0",",0","0",",0","3",",0","0","1,0","11","1,0","0","1,0","-0.6",",0,18,+","0",",,0,31,+","0.0",",,0,31,+","28.2",",,0,19,","26.1","1,0,08,",,,"244.8","0",,,,,,,,,,,,,"194.0","1,0",,,,,,,,,,,,,,,,,,,,,,,,,,,,,,,,,,,,,,,,,,,,,,,,,,,,,,,,,,,,,,,,,"95.8",",,,0",,,"0",",,,0","11.9","1,0","18.4","1,,,0","5.5",",,,0",,,,,,,,,,,,
"USC00127935","SEYMOUR 1 WSW, IN US","38.9543","-85.90452","172.8","2004-10",,,"512.0","0","5.0",",0","11",",0","7",",0","0",",0","0",",0","0",",0","1",",0","0",",0","13",",0","0",",0","0.0",",0,17,","0",",,0,31,+","0.0",",,0,31,+","113.3",",,0,19,","26.7",",0,30,",,,"207.9","0",,,,,,,,,,,,,"170.6",",0",,,,,,,,,,,,,,,,,,,,,,,,,,,,,,,,,,,,,,,,,,,,,,,,,,,,,,,,,,,,,,,,,"180.1",",,,0",,,"0",",,,0","13.0",",0","19.3",",,,0","6.6",",,,0",,,,,,,,,,,,
"USC00125117","LOGANSPORT CICOTT ST., IN US","40.7477","-86.3877","182.9","2004-10",,,"361.7","0","2.8","1,0","14",",0","7",",0","0",",0","0",",0","0","1,0","4","1,0","0",",0","9",",0","0",",0","-0.6","1,0,05,","0",",,0,31,+","0.0",",,0,31,+","24.4",",,0,19,","25.0",",0,30,",,,"251.9","0",,,,,,,,,,,,,"206.6",",0",,,,,,,,,,,,,,,,,,,,,,,,,,,,,,,,,,,,,,,,,,,,,,,,,,,,,,,,,,,,,,,,,"83.8",",,,0",,,"0",",,,0","11.5","1,0","17.5",",,,0","5.5","1,,,0",,,,,,,,,,,,
"USC00124667","KOKOMO 5 WSW, IN US","40.4614","-86.2122","248.1","2004-10",,,,,,,"8",",0","7",",0","0",",0","0",",0",,,,,,,,,,,,,"0",",,0,31,+","0.0",",,0,31,+","36.3",",,0,13,",,,,,,,,,,,,,,,,,,,,,,,,,,,,,,,,,,,,,,,,,,,,,,,,,,,,,,,,,,,,,,,,,,,,,,,,,,,,,,,,,,,,,"101.0",",,,0",,,"0",",,,0",,,,,,,,,,,,,,,,,,
"USC00124788","LAKEVILLE 7 NNE, IN US","41.56028","-86.15806","260.6","2004-10",,,,,,,"8",",0","5",",0","0",",0","0",",0",,,,,,,,,,,,,"0",",,0,31,+","0.0",",,0,31,+","8.4",",,0,24,",,,,,,,,,,,,,,,,,,,,,,,,,,,,,,,,,,,,,,,,,,,,,,,,,,,,,,,,,,,,,,,,,,,,,,,,,,,,,,,,,,,,,"31.8",",,,0",,,"0",",,,0",,,,,,,,,,,,,,,,,,
"USC00124272","INDIANAPOLIS SE SIDE, IN US","39.7164","-86.0678","257.6","2004-10",,,"459.2","0","3.6",",0","11",",0","7",",0","0",",0","0",",0","0",",0","1",",0","0",",0","11",",0","0",",0","-1.1",",0,03,","0",",,0,31,+","0.0",",,0,31,+","21.8",",,0,24,","25.6",",0,08,",,,"223.8","0",,,,,,,,,,,,,"174.4",",0",,,,,,,,,,,,,,,,,,,,,,,,,,,,,,,,,,,,,,,,,,,,,,,,,,,,,,,,,,,,,,,,,"81.9",",,,0",,,"0",",,,0","12.8",",0","18.2",",,,0","7.4",",,,0",,,,,,,,,,,,
"USC00125485","MCCUTCHANVILLE 4 N, IN US","38.1108","-87.5325","152.4","2004-10",,,,,,,"13",",0","10",",0","0",",0","0",",0",,,,,,,,,,,,,"0",",,0,31,+","0.0",",,0,31,+","43.2",",,0,19,",,,,,,,,,,,,,,,,,,,,,,,,,,,,,,,,,,,,,,,,,,,,,,,,,,,,,,,,,,,,,,,,,,,,,,,,,,,,,,,,,,,,,"163.6",",,,0",,,"0",",,,0",,,,,,,,,,,,,,,,,,
"USC00122096","DECATUR 1 N, IN US","40.8483","-84.9299","239.3","2004-10",,,,,,,"13",",0","8",",0","0",",0","0",",0",,,,,,,,,,,,,"0",",,0,31,+","0.0",",,0,31,+","19.3",",,0,19,",,,,,,,,,,,,,,,,,,,,,,,,,,,,,,,,,,,,,,,,,,,,,,,,,,,,,,,,,,,,,,,,,,,,,,,,,,,,,,,,,,,,,"64.1",",,,0",,,"0",",,,0",,,,,,,,,,,,,,,,,,
"USC00127267","REMINGTON 2 NNW, IN US","40.7942","-87.1719","210.3","2004-10",,,,,,,"10",",0","7",",0","0",",0","0",",0",,,,,,,,,,,,,"0",",,0,31,+","0.0",",,0,31,+","17.5",",,0,19,",,,,,,,,,,,,,,,,,,,,,,,,,,,,,,,,,,,,,,,,,,,,,,,,,,,,,,,,,,,,,,,,,,,,,,,,,,,,,,,,,,,,,"63.4",",,,0",,,"0",",,,0",,,,,,,,,,,,,,,,,,
"USC00128992","VALPARAISO 5 NNE, IN US","41.5436","-87.0319","264.9","2004-10",,,,,,,"11",",0","6",",0","0",",0","0",",0",,,,,,,,,,,,,"0",",,0,31,+","0.0",",,0,31,+","16.3",",,0,24,",,,,,,,,,,,,,,,,,,,,,,,,,,,,,,,,,,,,,,,,,,,,,,,,,,,,,,,,,,,,,,,,,,,,,,,,,,,,,,,,,,,,,"61.8",",,,0",,,"0",",,,0",,,,,,,,,,,,,,,,,,
"USC00126056","NASHVILLE 2 NNE, IN US","39.2401","-86.2295","210.3","2004-10",,,,,,,"12",",0","8",",0","0",",0","0",",0",,,,,,,,,,,,,"0",",,0,31,+","0.0",",,0,31,+","61.7",",,0,19,",,,,,,,,,,,,,,,,,,,,,,,,,,,,,,,,,,,,,,,,,,,,,,,,,,,,,,,,,,,,,,,,,,,,,,,,,,,,,,,,,,,,,"141.3",",,,0",,,"0",",,,0",,,,,,,,,,,,,,,,,,
"USC00128999","VALPARAISO WATERWORK, IN US","41.51139","-87.03778","243.8","2004-10",,,"312.1","0","2.3","4,0","4",",0","3",",0","0",",0","0",",0","0","4,0","3","4,0","0","4,0","8","4,0","0","4,0","-1.1","4,0,17,+","0",",,0,31,+","0.0",",,0,31,+","25.4",",,0,23,","25.0","4,0,30,+",,,"231.3","0",,,,,,,,,,,,,"164.9","4,0",,,,,,,,,,,,,,,,,,,,,,,,,,,,,,,,,,,,,,,,,,,,,,,,,,,,,,,,,,,,,,,,,"57.4",",,,0",,,"0",",,,0","12.3","4,0","18.1","4,,,0","6.5","4,,,0",,,,,,,,,,,,
"USR0000ITPL","TIPSAW LAKE INDIANA, IN US","38.125","-86.625","218.8","2004-10",,,,,"11.1",",U",,,,,,,,,"0",",U","1",",U","0",",U","14",",U","0",",U","-1.1",",U,17,",,,,,,,"27.8",",U,07,",,,"118.4","U",,,,,,,,,,,,,"103.4",",U",,,,,,,,,,,,,,,,,,,,,,,,,,,,,,,,,,,,,,,,,,,,,,,,,,,,,,,,,,,,,,,,,,,,,,,"15.4",",U","20.9",",,,U","9.8",",,,U",,,,,,,,,,,,
"USC00126697","PALMYRA, IN US","38.4075","-86.1105","234.7","2004-10",,,,,,,"9",",0","7",",0","0",",0","0",",0",,,,,,,,,,,,,"0",",,0,31,+","0.0",",,0,31,+","42.4",",,0,20,",,,,,,,,,,,,,,,,,,,,,,,,,,,,,,,,,,,,,,,,,,,,,,,,,,,,,,,,,,,,,,,,,,,,,,,,,,,,,,,,,,,,,"131.8",",,,0",,,"0",",,,0",,,,,,,,,,,,,,,,,,
"USC00123104","FREELANDVILLE, IN US","38.8672","-87.3083","167.6","2004-10",,,"556.0","0","3.6",",0","13",",0","8",",0","0",",0","0",",0","0",",0","0",",0","0",",0","12",",0","0",",0","2.2",",0,18,+","0",",,0,31,+","0.0",",,0,31,+","75.2",",,0,19,","26.7",",0,08,",,,"170.3","0",,,,,,,,,,,,,"144.7",",0",,,,,,,,,,,,,,,,,,,,,,,,,,,,,,,,,,,,,,,,,,,,,,,,,,,,,,,,,,,,,,,,,"214.4",",,,0",,,"0",",,,0","13.8",",0","19.1",",,,0","8.4",",,,0",,,,,,,,,,,,
"USC00125923","MORRISTOWN 2 SE, IN US","39.6484","-85.678","269.7","2004-10",,,,,,,"9",",0","6",",0","0",",0","0",",0",,,,,,,,,,,,,"0",",,0,31,+","0.0",",,0,31,+","21.1",",,0,13,",,,,,,,,,,,,,,,,,,,,,,,,,,,,,,,,,,,,,,,,,,,,,,,,,,,,,,,,,,,,,,,,,,,,,,,,,,,,,,,,,,,,,"72.6",",,,0",,,"0",",,,0",,,,,,,,,,,,,,,,,,
"USW00003868","TERRE HAUTE HULMAN REGIONAL AIRPORT, IN US","39.4429","-87.32206","172.7","2004-10","2.7",",W",,,"3.6",",W","10","1,W","8","1,W",,,,,"0",",W","4",",W","0",",W","11",",W","0",",W","-1.1",",W,03,",,,,,"52.8","1,,W,18,","27.2",",W,07,",,,,,,,,,,,,,,,,,"166.7",",W",,,,,,,,,,,,,,,,,,,,,,,,,,,,,,,,,,,,,,,,,,,,,,,,,,,,,,,,,,,,,,,,,"121.5","1,,,W",,,,,"13.1",",W","19.1",",,,W","7.1",",,,W",,,"250",",W","270",",W",,,"16.1",",W","21.9",",W"
"USC00122931","FLORA, IN US","40.5537","-86.522","208.8","2004-10",,,,,,,"12",",0","7",",0","0",",0","0",",0",,,,,,,,,,,,,"0",",,0,31,+","0.0",",,0,31,+","45.2",",,0,13,",,,,,,,,,,,,,,,,,,,,,,,,,,,,,,,,,,,,,,,,,,,,,,,,,,,,,,,,,,,,,,,,,,,,,,,,,,,,,,,,,,,,,"107.7",",,,0",,,"0",",,,0",,,,,,,,,,,,,,,,,,
"USC00125888","MOROCCO 1 NW, IN US","40.95855","-87.47784","205.4","2004-10",,,,,,,"12",",0","9",",0","0",",0","0",",0",,,,,,,,,,,,,"0",",,0,31,+","0.0",",,0,31,+","21.1",",,0,19,",,,,,,,,,,,,,,,,,,,,,,,,,,,,,,,,,,,,,,,,,,,,,,,,,,,,,,,,,,,,,,,,,,,,,,,,,,,,,,,,,,,,,"67.1",",,,0",,,"0",",,,0",,,,,,,,,,,,,,,,,,
"USC00124832","LAPEL 4 S, IN US","40.0113","-85.8436","262.1","2004-10",,,,,,,"11",",0","7",",0","0",",0","0",",0",,,,,,,,,,,,,"0",",,0,31,+","0.0",",,0,31,+","43.9",",,0,13,",,,,,,,,,,,,,,,,,,,,,,,,,,,,,,,,,,,,,,,,,,,,,,,,,,,,,,,,,,,,,,,,,,,,,,,,,,,,,,,,,,,,,"107.5",",,,0",,,"0",",,,0",,,,,,,,,,,,,,,,,,
"USC00129605","WILLIAMS 3 SW, IN US","38.7669","-86.6846","166.7","2004-10",,,,,,,"12",",0","8",",0","0",",0","0",",0",,,,,,,,,,,,,"0",",,0,31,+","0.0",",,0,31,+","57.7",",,0,19,",,,,,,,,,,,,,,,,,,,,,,,,,,,,,,,,,,,,,,,,,,,,,,,,,,,,,,,,,,,,,,,,,,,,,,,,,,,,,,,,,,,,,"157.7",",,,0",,,"0",",,,0",,,,,,,,,,,,,,,,,,
"USC00121326","CASTLETON 2 S, IN US","39.8801","-86.0514","251.2","2004-10",,,,,,,"13",",0","6",",0","0",",0","0",",0",,,,,,,,,,,,,"0",",,0,31,+","0.0",",,0,31,+","24.9",",,0,23,",,,,,,,,,,,,,,,,,,,,,,,,,,,,,,,,,,,,,,,,,,,,,,,,,,,,,,,,,,,,,,,,,,,,,,,,,,,,,,,,,,,,,"88.3",",,,0",,,"0",",,,0",,,,,,,,,,,,,,,,,,
"USC00124837","LAPORTE, IN US","41.6116","-86.7297","246.6","2004-10",,,"344.5","0","1.7",",0","11",",0","6",",0","0",",0","0",",0","0",",0","0",",0","0",",0","6",",0","0",",0","0.6",",0,17,","0",",,0,31,+","0.0",",,0,31,+","38.4",",,0,23,","25.0",",0,29,",,,"244.6","0",,,,,,,,,,,,,"194.9",",0",,,,,,,,,,,,,,,,,,,,,,,,,,,,,,,,,,,,,,,,,,,,,,,,,,,,,,,,,,,,,,,,,"86.8",",,,0",,,"0",",,,0","12.1",",0","17.0",",,,0","7.2",",,,0",,,,,,,,,,,,
"USC00125407","MARTINSVILLE 2 SW, IN US","39.40427","-86.45262","180.4","2004-10",,,"394.6","0","3.6","1,0","11",",0","6",",0","0",",0","0",",0","0","1,0","6","1,0","0",",0","12",",0","0",",0","-2.2","1,0,07,","0",",,0,31,+","0.0",",,0,31,+","36.8",",,0,19,","26.1",",0,08,",,,"224.9","0",,,,,,,,,,,,,"177.0",",0",,,,,,,,,,,,,,,,,,,,,,,,,,,,,,,,,,,,,,,,,,,,,,,,,,,,,,,,,,,,,,,,,"108.6",",,,0",,,"0",",,,0","12.5","1,0","18.9",",,,0","6.1","1,,,0",,,,,,,,,,,,
"USC00120877","BOWLING GREEN 1 W, IN US","39.3854","-87.0399","183.2","2004-10",,,,,,,"6",",0","6",",0","0",",0","0",",0",,,,,,,,,,,,,"0",",,0,31,+","0.0",",,0,31,+","45.7",",,0,19,",,,,,,,,,,,,,,,,,,,,,,,,,,,,,,,,,,,,,,,,,,,,,,,,,,,,,,,,,,,,,,,,,,,,,,,,,,,,,,,,,,,,,"107.7",",,,0",,,"0",",,,0",,,,,,,,,,,,,,,,,,
"USC00122814","FARMERSBURG TV 2, IN US","39.2425","-87.3905","167.0","2004-10",,,,,,,"13",",0","8",",0","0",",0","0",",0",,,,,,,,,,,,,"0",",,0,31,+","0.0",",,0,31,+","75.4",",,0,18,",,,,,,,,,,,,,,,,,,,,,,,,,,,,,,,,,,,,,,,,,,,,,,,,,,,,,,,,,,,,,,,,,,,,,,,,,,,,,,,,,,,,,"171.2",",,,0",,,"0",",,,0",,,,,,,,,,,,,,,,,,
"USC00124715","LAFAYETTE 8 S, IN US","40.2963","-86.9027","223.1","2004-10",,,"453.5","0","2.8",",0","13",",0","8",",0","0",",0","0",",0","0",",0","3",",0","0",",0","9",",0","0",",0","-1.7",",0,17,+","0",",,0,31,+","0.0",",,0,31,+","13.2",",,0,18,","27.2",",0,08,",,,"229.6","0",,,,,,,,,,,,,"180.8",",0",,,,,,,,,,,,,,,,,,,,,,,,,,,,,,,,,,,,,,,,,,,,,,,,,,,,,,,,,,,,,,,,,"68.9",",,,0",,,"0",",,,0","12.6",",0","18.6",",,,0","6.6",",,,0",,,,,,,,,,,,
"USC00122816","FARMERS RETREAT, IN US","38.9756","-85.1028","271.3","2004-10",,,,,,,"9",",0","7",",0","0",",0","0",",0",,,,,,,,,,,,,"0",",,0,31,+","0.0",",,0,31,+","122.4",",,0,19,",,,,,,,,,,,,,,,,,,,,,,,,,,,,,,,,,,,,,,,,,,,,,,,,,,,,,,,,,,,,,,,,,,,,,,,,,,,,,,,,,,,,,"209.4",",,,0",,,"0",",,,0",,,,,,,,,,,,,,,,,,
"USW00004846","VALPARAISO PORTER CO MUNICIPAL AIRPORT, IN US","41.4535","-86.997964","234.0","2004-10","3.8",",W","291.6","W","2.3",",W","12",",W","6",",W",,,,,"0",",W","2",",W","0",",W","6",",W","0",",W","-1.1",",W,17,+",,,,,"23.9",",,W,23,","25.6",",W,29,",,,"295.0","W",,,,,,,,,,,,,"214.4",",W",,,,,,,,,,,,,,,,,,,,,,,,,,,,,,,,,,,,,,,,,,,,,,,,,,,,,,,,,,,,,,,,,"68.1",",,,W",,,,,"11.5",",W","17.3",",,,W","5.7",",,,W",,,"240",",W","250",",W",,,"20.1",",W","25.9",",W"
"USC00126340","NOBLESVILLE 3 W, IN US","40.0382","-86.0712","252.1","2004-10",,,,,,,"11",",0","6",",0","0",",0","0",",0",,,,,,,,,,,,,"0",",,0,31,+","0.0",",,0,31,+","17.8",",,0,19,",,,,,,,,,,,,,,,,,,,,,,,,,,,,,,,,,,,,,,,,,,,,,,,,,,,,,,,,,,,,,,,,,,,,,,,,,,,,,,,,,,,,,"50.1",",,,0",,,"0",",,,0",,,,,,,,,,,,,,,,,,
"USC00126580","OOLITIC PURDUE EX FRM, IN US","38.88855","-86.55169","197.8","2004-10",,,"487.0","0","3.3",",0","13",",0","7",",0","0",",0","0",",0","0",",0","2",",0","0",",0","14",",0","0",",0","-2.2",",0,17,","0",",,0,31,+","0.0",",,0,31,+","69.9",",,0,18,","27.2",",0,08,",,,"179.5","0",,,,,,,,,,,,,"151.0",",0",,,,,,,,,,,,,,,,,,,,,,,,,,,,,,,,,,,,,,,,,,,,,,,,,,,,,,,,,,,,,,,,,"193.5",",,,0",,,"0",",,,0","13.6",",0","19.8",",,,0","7.3",",,,0",,,,,,,,,,,,
"USC00124286","INDIANAPOLIS ZOO, IN US","39.76902","-86.18497","213.7","2004-10",,,,,,,"12",",0","7",",0","0",",0","0",",0",,,,,,,,,,,,,"0",",,0,31,+","0.0",",,0,31,+","23.9",",,0,24,",,,,,,,,,,,,,,,,,,,,,,,,,,,,,,,,,,,,,,,,,,,,,,,,,,,,,,,,,,,,,,,,,,,,,,,,,,,,,,,,,,,,,"85.2",",,,0",,,"0",",,,0",,,,,,,,,,,,,,,,,,
"USC00127398","RIDGEVILLE 3 SSE, IN US","40.2552","-84.9958","315.5","2004-10",,,,,,,"10",",0","7",",0","0",",0","0",",0",,,,,,,,,,,,,"0",",,0,31,+","0.0",",,0,31,+","17.8",",,0,13,",,,,,,,,,,,,,,,,,,,,,,,,,,,,,,,,,,,,,,,,,,,,,,,,,,,,,,,,,,,,,,,,,,,,,,,,,,,,,,,,,,,,,"66.9",",,,0",,,"0",",,,0",,,,,,,,,,,,,,,,,,
"USC00122660","ENGLISH, IN US","38.27889","-86.46833","155.4","2004-10",,,"520.3","0","3.6","1,0","8",",0","8",",0","0",",0","0",",0","0",",0","3",",0","0","1,0","22","1,0","0","1,0","-1.7",",0,17,","0",",,0,31,+","0.0",",,0,31,+","50.8",",,0,18,","27.8","1,0,07,",,,"119.6","0",,,,,,,,,,,,,"94.9","1,0",,,,,,,,,,,,,,,,,,,,,,,,,,,,,,,,,,,,,,,,,,,,,,,,,,,,,,,,,,,,,,,,,"153.0",",,,0",,,"0",",,,0","15.3","1,0","22.1","1,,,0","8.6",",,,0",,,,,,,,,,,,
"USC00123078","FRANCESVILLE, IN US","40.98918","-86.8813","206.0","2004-10",,,,,"2.0",",0","11",",0","6",",0","0",",0","0",",0","0",",0","4",",0","0",",0","7",",0","0",",0","-2.2",",0,17,+","0",",,0,31,+","0.0",",,0,31,+","17.3",",,0,24,","25.6",",0,08,",,,,,,,,,,,,,,,,,"212.3",",0",,,,,,,,,,,,,,,,,,,,,,,,,,,,,,,,,,,,,,,,,,,,,,,,,,,,,,,,,,,,,,,,,"62.0",",,,0",,,"0",",,,0","11.6",",0","18.1",",,,0","5.0",",,,0",,,,,,,,,,,,
"USC00126989","PLYMOUTH, IN US","41.3392","-86.3358","248.4","2004-10",,,"326.3","0","2.0",",0","10",",0","5",",0","0",",0","0",",0","0",",0","5",",0","0",",0","7",",0","0",",0","-1.7",",0,06,","0",",,0,31,+","0.0",",,0,31,+","13.0",",,0,24,","25.0",",0,30,",,,"302.8","0",,,,,,,,,,,,,"224.8",",0",,,,,,,,,,,,,,,,,,,,,,,,,,,,,,,,,,,,,,,,,,,,,,,,,,,,,,,,,,,,,,,,,"42.3",",,,0",,,"0",",,,0","11.1",",0","17.3",",,,0","4.9",",,,0",,,,,,,,,,,,
"USC00122149","DELPHI, IN US","40.615","-86.666","169.5","2004-10",,,,,"0.8","2,0","7",",0","7",",0","0",",0","0",",0","0","1,0","8","1,0","0","2,0","9","2,0","0","2,0","-2.8","1,0,05,","0",",,0,31,+","0.0",",,0,31,+","36.8",",,0,13,","26.1","2,0,07,",,,"246.2","0",,,,,,,,,,,,,"189.9","2,0",,,,,,,,,,,,,,,,,,,,,,,,,,,,,,,,,,,,,,,,,,,,,,,,,,,,,,,,,,,,,,,,,"93.9",",,,0",,,"0",",,,0","11.8","2,0","18.7","2,,,0","4.8","1,,,0",,,,,,,,,,,,
"USC00123513","GREENCASTLE 1 E, IN US","39.644","-86.8766","224.0","2004-10",,,"323.8","0","4.4","1,0","12",",0","9",",0","0",",0","0",",0","0","1,0","7","1,0","0",",0","12",",0","0",",0","-1.1","1,0,18,+","0",",,0,31,+","0.0",",,0,31,+","35.3",",,0,19,","26.1",",0,08,",,,"263.9","0",,,,,,,,,,,,,"190.0",",0",,,,,,,,,,,,,,,,,,,,,,,,,,,,,,,,,,,,,,,,,,,,,,,,,,,,,,,,,,,,,,,,,"112.1",",,,0",,,"0",",,,0","12.2","1,0","19.0",",,,0","5.4","1,,,0",,,,,,,,,,,,
"USC00122825","FARMLAND 5 NNW, IN US","40.2538","-85.1484","294.1","2004-10",,,"372.5","0","1.1",",0","10",",0","6",",0","0",",0","0",",0","0",",0","4",",0","0",",0","10",",0","0",",0","-2.2",",0,05,","0",",,0,31,+","0.0",",,0,31,+","17.5",",,0,13,","25.6",",0,30,+",,,"292.5","0","12.2",",,,0,3,2","15.6","1,,,0,3,3","15.0","1,,,0,5,2",,,,,,,"219.8",",0","19.4",",,,0,3,2","20.0","1,,,0,3,3","19.4","1,,,0,5,2",,,,,,,"2.8",",,,0,3,2","7.8","1,,,0,3,3","8.3","1,,,0,5,2",,,,,,,"5.0",",,,0,3,2","8.3","1,,,0,3,3","9.4","1,,,0,5,2",,,,,,,"8.5",",,,0,3,2","12.0","1,,,0,3,3","12.1","1,,,0,5,2",,,,,,,,,"13.6",",,,0,3,2","14.9","1,,,0,3,3","15.4","1,,,0,5,2",,,,,,,,,"76.7",",,,0",,,"0",",,,0","11.3",",0","18.0",",,,0","4.5",",,,0",,,,,,,,,,,,
"USC00127959","SHAKAMAK STATE PARK, IN US","39.1613","-87.2436","167.3","2004-10",,,,,,,"13","2,0","7","2,0","0","4,0","0","2,0",,,,,"0","2,0","12","2,0","0","2,0",,,"0","4,,0,31,+","0.0","2,,0,31,+","48.3","2,,0,18,","26.7","2,0,08,",,,,,,,,,,,,,,,,,,,,,,,,,,,,,,,,,,,,,,,,,,,,,,,,,,,,,,,,,,,,,,,,,,,,,,,,,,,,,,,,,,,"165.4",",a,,0",,,"0","2,,,0",,,"19.2","2,,,0",,,,,,,,,,,,,,
"USC00122309","DUBOIS S IN FORAGE FARM, IN US","38.4558","-86.6983","210.3","2004-10",,,,,"5.3","1,0","12",",0","6",",0","0",",0","0",",0","0","1,0","0","1,0","0",",0","17",",0","0",",0","0.6","1,0,17,","0",",,0,31,+","0.0",",,0,31,+","52.6",",,0,19,","27.8",",0,30,+",,,,,"16.7",",,,0,3,1","17.8",",,,0,3,2","17.8","1,,,0,3,3",,,,,,,"116.3",",0","23.9",",,,0,3,1","28.9",",,,0,3,2","17.8","1,,,0,3,3",,,,,,,"7.2",",,,0,3,1","6.1",",,,0,3,2","11.7","1,,,0,3,3",,,,,,,"12.8",",,,0,3,1","13.3",",,,0,3,2","12.8","1,,,0,3,3",,,,,,,"13.1",",,,0,3,1","12.8",",,,0,3,2","14.8","1,,,0,3,3",,,,,,,,,"18.6",",,,0,3,1","21.0",",,,0,3,2","15.3","1,,,0,3,3",,,,,,,,,"140.0",",,,0",,,"0",",,,0","14.6","1,0","20.9",",,,0","8.4","1,,,0",,,,,,,,,,,,
"USC00121739","COLUMBIA CITY, IN US","41.1452","-85.4898","254.2","2004-10",,,"303.4","0","1.4",",0","12",",0","3",",0","0",",0","0",",0","0",",0","5",",0","0",",0","8",",0","0",",0","-2.2",",0,05,","0",",,0,31,+","0.0",",,0,31,+","11.4",",,0,19,","25.0",",0,08,",,,"305.8","0","13.9",",,,0,3,2","15.0","1,,,0,5,2",,,,,,,,,"228.0",",0","21.1",",,,0,3,2","18.3","1,,,0,5,2",,,,,,,,,"6.7",",,,0,3,2","9.4","1,,,0,5,2",,,,,,,,,"7.8",",,,0,3,2","11.1","1,,,0,5,2",,,,,,,,,"8.8",",,,0,3,2","12.6","1,,,0,5,2",,,,,,,,,,,"15.9",",,,0,3,2","15.6","1,,,0,5,2",,,,,,,,,,,"34.9",",,,0",,,"0",",,,0","11.0",",0","17.3",",,,0","4.7",",,,0",,,,,,,,,,,,
"USC00129222","WANATAH 2 WNW, IN US","41.4439","-86.9294","224.0","2004-10",,,"290.7","0","1.9",",0","13",",0","6",",0","0",",0","0",",0","0",",0","7",",0","0",",0","8",",0","0",",0","-2.8",",0,18,+","0",",,0,31,+","0.0",",,0,31,+","18.3",",,0,24,","26.1",",0,30,","76",",,,0","342.6","0","13.9",",,,0,3,1","15.6",",,,0,3,2","15.6","3,,,0,3,3","13.9",",,,0,5,2",,,,,"238.1",",0","24.4",",,,0,3,1","24.4",",,,0,3,2","17.2","3,,,0,3,3","18.3",",,,0,5,2",,,,,"1.1",",,,0,3,1","5.0",",,,0,3,2","6.1","3,,,0,3,3","7.2",",,,0,5,2",,,,,"6.7",",,,0,3,1","8.9",",,,0,3,2","9.4","3,,,0,3,3","9.4",",,,0,5,2",,,,,"6.8",",,,0,3,1","11.2",",,,0,3,2","10.1","3,,,0,3,3","11.1",",,,0,5,2",,,,,"5.6",",,,0","16.6",",,,0,3,1","17.0",",,,0,3,2","14.1","3,,,0,3,3","14.1",",,,0,5,2",,,,,"17.7",",,,0","68.5",",,,0",,,"0",",,,0","10.7",",0","18.3",",,,0","3.1",",,,0",,,,,,,"4194.0",",,,0",,,,
"USC00123082","FRANKFORT DISPOSAL, IN US","40.2986","-86.5066","251.2","2004-10",,,"386.8","0","3.4",",0","12",",0","8",",0","0",",0","0",",0","0",",0","3",",0","0",",0","9",",0","0",",0","-0.6",",0,05,+","0",",,0,31,+","0.0",",,0,31,+","25.7",",,0,18,","25.6",",0,29,+",,,"243.8","0",,,,,,,,,,,,,"196.9",",0",,,,,,,,,,,,,,,,,,,,,,,,,,,,,,,,,,,,,,,,,,,,,,,,,,,,,,,,,,,,,,,,,"76.8",",,,0",,,"0",",,,0","12.1",",0","17.9",",,,0","6.2",",,,0",,,,,,,,,,,,
"USC00126872","PETERSBURG 61 BRIDGE, IN US","38.465","-87.2657","143.9","2004-10",,,,,"4.7",",0","11",",0","7",",0","0",",0","0",",0","0",",0","0",",0","0",",0","14",",0","0",",0","1.1",",0,18,","0",",,0,31,+","0.0",",,0,31,+","51.8",",,0,19,","27.8",",0,08,",,,"139.4","0",,,,,,,,,,,,,"123.3",",0",,,,,,,,,,,,,,,,,,,,,,,,,,,,,,,,,,,,,,,,,,,,,,,,,,,,,,,,,,,,,,,,,"191.6",",,,0",,,"0",",,,0","14.5",",0","20.5",",,,0","8.5",",,,0",,,,,,,,,,,,
"USC00125541","MEDORA, IN US","38.7913","-86.2096","159.7","2004-10",,,,,,,"12",",0","8",",0","0",",0","0",",0",,,,,,,,,,,,,"0",",,0,31,+","0.0",",,0,31,+","88.9",",,0,19,",,,,,,,,,,,,,,,,,,,,,,,,,,,,,,,,,,,,,,,,,,,,,,,,,,,,,,,,,,,,,,,,,,,,,,,,,,,,,,,,,,,,,"173.2",",,,0",,,"0",",,,0",,,,,,,,,,,,,,,,,,
"USC00120096","ALEXANDRIA, IN US","40.1968","-85.6702","265.5","2004-10",,,,,,,"9",",0","9",",0","0",",0","0",",0",,,,,,,,,,,,,"0",",,0,31,+","0.0",",,0,31,+","14.2",",,0,24,+",,,,,,,,,,,,,,,,,,,,,,,,,,,,,,,,,,,,,,,,,,,,,,,,,,,,,,,,,,,,,,,,,,,,,,,,,,,,,,,,,,,,,"82.1",",,,0",,,"0",",,,0",,,,,,,,,,,,,,,,,,
"USC00124730","LAGRANGE, IN US","41.6474","-85.4121","274.3","2004-10",,,,,,,"6",",0","6",",0","0",",0","0",",0",,,,,"0",",0","11",",0","0",",0",,,"0",",,0,31,+","0.0",",,0,31,+","49.8",",,0,15,","23.3",",0,07,",,,,,,,,,,,,,,,,,,,,,,,,,,,,,,,,,,,,,,,,,,,,,,,,,,,,,,,,,,,,,,,,,,,,,,,,,,,,,,,,,,,"162.8",",,,0",,,"0",",,,0",,,"16.7",",,,0",,,,,,,,,,,,,,
"USC00121187","BUTLER 1 SE, IN US","41.4083","-84.8536","259.1","2004-10",,,,,,,"8",",0","6",",0","0",",0","0",",0",,,,,,,,,,,,,"0",",,0,31,+","0.0",",,0,31,+","8.4",",,0,19,",,,,,,,,,,,,,,,,,,,,,,,,,,,,,,,,,,,,,,,,,,,,,,,,,,,,,,,,,,,,,,,,,,,,,,,,,,,,,,,,,,,,,"43.2",",,,0",,,"0",",,,0",,,,,,,,,,,,,,,,,,
"USC00124613","KINGSBURY 1 N, IN US","41.53693","-86.70209","230.1","2004-10",,,,,,,"9",",0","6",",0","0",",0","0",",0",,,,,,,,,,,,,"0",",,0,31,+","0.0",",,0,31,+","19.6",",,0,24,",,,,,,,,,,,,,,,,,,,,,,,,,,,,,,,,,,,,,,,,,,,,,,,,,,,,,,,,,,,,,,,,,,,,,,,,,,,,,,,,,,,,,"57.8",",,,0",,,"0",",,,0",,,,,,,,,,,,,,,,,,
"USC00124977","LEXINGTON 3 N, IN US","38.675","-85.60333","192.0","2004-10",,,,,"3.1","5,0","12",",0","8",",0","0",",0","0",",0","0","5,0","4","5,0","0",",0","11",",0","0",",0","-2.8","5,0,16,","0",",,0,31,+","0.0",",,0,31,+","118.9",",,0,18,","26.1",",0,29,",,,,,,,,,,,,,,,,,"138.6",",0",,,,,,,,,,,,,,,,,,,,,,,,,,,,,,,,,,,,,,,,,,,,,,,,,,,,,,,,,,,,,,,,,"209.0",",,,0",,,"0",",,,0","13.3","5,0","19.4",",,,0","7.3","5,,,0",,,,,,,,,,,,
"USC00125700","MITCHELL, IN US","38.7894","-86.3963","199.6","2004-10",,,,,,,"11",",0","4",",0","0",",0","0",",0",,,,,,,,,,,,,"0",",,0,31,+","0.0",",,0,31,+","65.5",",,0,19,",,,,,,,,,,,,,,,,,,,,,,,,,,,,,,,,,,,,,,,,,,,,,,,,,,,,,,,,,,,,,,,,,,,,,,,,,,,,,,,,,,,,,"142.9",",,,0",,,"0",",,,0",,,,,,,,,,,,,,,,,,
"USC00127724","SAINT MEINRAD, IN US","38.1641","-86.8094","155.4","2004-10",,,"625.6","0","12.2",",0","12",",0","9",",0","0",",0","0",",0","0",",0","1",",0","0",",0","20",",0","0",",0","-0.6",",0,17,","0",",,0,31,+","0.0",",,0,31,+","46.2",",,0,19,","27.2",",0,08,+",,,"103.4","0",,,,,,,,,,,,,"91.4",",0",,,,,,,,,,,,,,,,,,,,,,,,,,,,,,,,,,,,,,,,,,,,,,,,,,,,,,,,,,,,,,,,,"164.1",",,,0",,,"0",",,,0","15.8",",0","21.6",",,,0","9.9",",,,0",,,,,,,,,,,,
"USW00053866","SHELBYVILLE MUNICIPAL AIRPORT, IN US","39.58545","-85.79982","244.4","2004-10","3.8",",W",,,"4.7",",W","13",",W","6",",W",,,,,"0",",W","3",",W","0",",W","11",",W","0",",W","-1.7",",W,03,",,,,,"38.6",",,W,18,","26.7",",W,29,",,,"208.7","W",,,,,,,,,,,,,"172.3",",W",,,,,,,,,,,,,,,,,,,,,,,,,,,,,,,,,,,,,,,,,,,,,,,,,,,,,,,,,,,,,,,,,"99.5",",,,W",,,,,"12.9",",W","18.9",",,,W","7.0",",,,W",,,"230",",W","240",",W",,,"17.4",",W","22.8",",W"
"USC00123527","GREENFIELD, IN US","39.7858","-85.7611","264.9","2004-10",,,"450.9","0","4.2",",0","13",",0","9",",0","0",",0","0",",0","0",",0","1",",0","0",",0","11",",0","0",",0","-1.1",",0,12,","0",",,0,31,+","0.0",",,0,31,+","23.1",",,0,19,","25.6",",0,30,+",,,"236.1","0",,,,,,,,,,,,,"196.2",",0",,,,,,,,,,,,,,,,,,,,,,,,,,,,,,,,,,,,,,,,,,,,,,,,,,,,,,,,,,,,,,,,,"99.3",",,,0",,,"0",",,,0","12.1",",0","18.3",",,,0","6.0",",,,0",,,,,,,,,,,,
"USC00121747","COLUMBUS, IN US","39.166","-85.9227","185.6","2004-10",,,"543.6","0","4.7",",0","11",",0","8",",0","0",",0","0",",0","0",",0","2",",0","0",",0","15",",0","0",",0","-0.6",",0,18,","0",",,0,31,+","0.0",",,0,31,+","69.9",",,0,19,","26.7",",0,30,",,,"175.3","0",,,,,,,,,,,,,"154.7",",0",,,,,,,,,,,,,,,,,,,,,,,,,,,,,,,,,,,,,,,,,,,,,,,,,,,,,,,,,,,,,,,,,"132.9",",,,0",,,"0",",,,0","13.5",",0","19.9",",,,0","7.1",",,,0",,,,,,,,,,,,
"USC00129905","YOUNG AMERICA, IN US","40.5615","-86.3424","235.6","2004-10",,,,,"2.5",",0","12",",0","6",",0","0",",0","0",",0","0",",0","4",",0","0",",0","11",",0","0",",0","-1.1",",0,03,","0",",,0,31,+","0.0",",,0,31,+","27.2",",,0,13,","26.7",",0,08,",,,,,,,,,,,,,,,,,"205.8",",0",,,,,,,,,,,,,,,,,,,,,,,,,,,,,,,,,,,,,,,,,,,,,,,,,,,,,,,,,,,,,,,,,"69.5",",,,0",,,"0",",,,0","11.8",",0","18.2",",,,0","5.3",",,,0",,,,,,,,,,,,
"USC00121869","CRANE NSA, IN US","38.8725","-86.8349","222.5","2004-10",,,"570.5","0","9.5","4,0","15","1,0","9","1,0","0",",0","0",",0","0","2,0","0","2,0","0","4,0","15","4,0","0","4,0","1.1","2,0,17,","0",",,0,31,+","0.0",",,0,31,+","96.5","1,,0,18,","26.7","4,0,08,+",,,"119.2","0",,,,,,,,,,,,,"107.1","4,0",,,,,,,,,,,,,,,,,,,,,,,,,,,,,,,,,,,,,,,,,,,,,,,,,,,,,,,,,,,,,,,,,"213.5","1,,,0",,,"0",",,,0","14.8","4,0","20.3","4,,,0","9.4","2,,,0",,,,,,,,,,,,
"USW00003893","BLOOMINGTON MONROE CO AIRPORT, IN US","39.14317","-86.61676","253.3","2004-10","2.9",",W","481.9","W","6.4",",W","16",",W","6",",W",,,,,"0",",W","2",",W","0",",W","16",",W","0",",W","-0.6",",W,03,",,,,,"73.2",",,W,18,","26.7",",W,07,",,,"174.4","W",,,,,,,,,,,,,"136.1",",W",,,,,,,,,,,,,,,,,,,,,,,,,,,,,,,,,,,,,,,,,,,,,,,,,,,,,,,,,,,,,,,,,"129.8",",,,W",,,,,"14.1",",W","20.0",",,,W","8.3",",,,W",,,"230",",W","220",",W",,,"15.6",",W","21.0",",W"
"USC00121628","CLINTON 2 W, IN US","39.6593","-87.4393","184.4","2004-10",,,,,,,"11",",0","8",",0","0",",0","0",",0",,,,,,,,,,,,,"0",",,0,31,+","0.0",",,0,31,+","46.2",",,0,19,",,,,,,,,,,,,,,,,,,,,,,,,,,,,,,,,,,,,,,,,,,,,,,,,,,,,,,,,,,,,,,,,,,,,,,,,,,,,,,,,,,,,,"122.2",",,,0",,,"0",",,,0",,,,,,,,,,,,,,,,,,
"USC00125829","MONTEZUMA 1 SE, IN US","39.7886","-87.3638","154.2","2004-10",,,,,,,"12",",0","8",",0","0",",0","0",",0",,,,,,,,,,,,,"0",",,0,31,+","0.0",",,0,31,+","33.0",",,0,19,",,,,,,,,,,,,,,,,,,,,,,,,,,,,,,,,,,,,,,,,,,,,,,,,,,,,,,,,,,,,,,,,,,,,,,,,,,,,,,,,,,,,,"103.5",",,,0",,,"0",",,,0",,,,,,,,,,,,,,,,,,
"USR0000IHAR","HARDIN RIDGE INDIANA, IN US","39.0","-86.4228","228.6","2004-10",,,,,"6.7",",U",,,,,,,,,"0",",U","0",",U","0",",U","14",",U","0",",U","0.6",",U,17,",,,,,,,"27.8",",U,07,",,,"137.6","U",,,,,,,,,,,,,"120.7",",U",,,,,,,,,,,,,,,,,,,,,,,,,,,,,,,,,,,,,,,,,,,,,,,,,,,,,,,,,,,,,,,,,,,,,,,"14.7",",U","20.1",",,,U","9.2",",,,U",,,,,,,,,,,,
"USC00123091","FRANKLIN WWTP, IN US","39.4684","-86.04121","219.5","2004-10",,,"451.1","0","3.9","2,0","10",",0","8",",0","0",",0","0",",0","0","2,0","3","2,0","0",",0","12",",0","0",",0","-0.6","2,0,03,","0",",,0,31,+","0.0",",,0,31,+","37.3",",,0,19,","26.7",",0,30,",,,"212.2","0",,,,,,,,,,,,,"172.2",",0",,,,,,,,,,,,,,,,,,,,,,,,,,,,,,,,,,,,,,,,,,,,,,,,,,,,,,,,,,,,,,,,,"124.4",",,,0",,,"0",",,,0","12.4","2,0","19.2",",,,0","5.7","2,,,0",,,,,,,,,,,,
"USC00125394","MARSHALL, IN US","39.8438","-87.18753","215.8","2004-10",,,,,,,"12",",0","9",",0","0",",0","0",",0",,,,,,,,,,,,,"0",",,0,31,+","0.0",",,0,31,+","21.6",",,0,19,",,,,,,,,,,,,,,,,,,,,,,,,,,,,,,,,,,,,,,,,,,,,,,,,,,,,,,,,,,,,,,,,,,,,,,,,,,,,,,,,,,,,,"96.3",",,,0",,,"0",",,,0",,,,,,,,,,,,,,,,,,
"USC00124181","HUNTINGTON, IN US","40.856","-85.4988","222.8","2004-10",,,,,"3.1","3,0","13",",0","5",",0","0",",0","0",",0","0","3,0","4","3,0","0",",0","10",",0","0",",0","-1.1","3,0,06,+","0",",,0,31,+","0.0",",,0,31,+","20.3",",,0,19,","25.0",",0,30,",,,,,,,,,,,,,,,,,"206.3",",0",,,,,,,,,,,,,,,,,,,,,,,,,,,,,,,,,,,,,,,,,,,,,,,,,,,,,,,,,,,,,,,,,"64.8",",,,0",,,"0",",,,0","11.2","3,0","17.7",",,,0","4.8","3,,,0",,,,,,,,,,,,
"USC00122041","DANVILLE 3 SW, IN US","39.7344","-86.5361","291.4","2004-10",,,,,,,"11",",0","7",",0","0",",0","0",",0",,,,,,,,,,,,,"0",",,0,31,+","0.0",",,0,31,+","25.9",",,0,19,",,,,,,,,,,,,,,,,,,,,,,,,,,,,,,,,,,,,,,,,,,,,,,,,,,,,,,,,,,,,,,,,,,,,,,,,,,,,,,,,,,,,,"103.9",",,,0",,,"0",",,,0",,,,,,,,,,,,,,,,,,
"USC00128784","TIPTON 5 SW, IN US","40.2233","-86.1086","271.3","2004-10",,,"349.0","0","3.3",",0","14",",0","8",",0","0",",0","0",",0","0",",0","4",",0","0",",0","10",",0","0",",0","-1.7",",0,04,","0",",,0,31,+","0.0",",,0,31,+","41.1",",,0,13,","26.1",",0,08,",,,"285.1","0","16.7",",,,0,3,2","18.3",",,,0,5,2",,,,,,,,,"219.4",",0","23.9",",,,0,3,2","23.3",",,,0,5,2",,,,,,,,,"0.6",",,,0,3,2","11.1",",,,0,5,2",,,,,,,,,"9.4",",,,0,3,2","12.2",",,,0,5,2",,,,,,,,,"11.7",",,,0,3,2","14.8",",,,0,5,2",,,,,,,,,,,"17.7",",,,0,3,2","18.5",",,,0,5,2",,,,,,,,,,,"97.0",",,,0",,,"0",",,,0","11.4",",0","17.7",",,,0","5.0",",,,0",,,,,,,,,,,,
"USC00126001","MOUNT VERNON, IN US","37.9286","-87.8955","108.8","2004-10",,,,,"9.8","4,0","7","5,0","6","5,0","0",",0","0",",0","0","4,0","0","4,0","0","4,0","18","4,0","0","4,0","4.4","4,0,04,+","0",",,0,31,+","0.0",",,0,31,+","30.2","5,,0,19,","28.3","4,0,08,",,,"67.1","0",,,,,,,,,,,,,"59.0","4,0",,,,,,,,,,,,,,,,,,,,,,,,,,,,,,,,,,,,,,,,,,,,,,,,,,,,,,,,,,,,,,,,,"105.6","2,a,,0",,,"0",",,,0","16.5","4,0","21.8","4,,,0","11.3","4,,,0",,,,,,,,,,,,
"USC00127298","RENSSELAER WWTP, IN US","40.92386","-87.17539","200.6","2004-10",,,"360.0","0","2.0",",0","13",",0","7",",0","0",",0","0",",0","0",",0","6",",0","0",",0","8",",0","0",",0","-1.1",",0,17,","0",",,0,31,+","0.0",",,0,31,+","16.3",",,0,19,","25.6",",0,30,+",,,"283.1","0",,,,,,,,,,,,,"215.7",",0",,,,,,,,,,,,,,,,,,,,,,,,,,,,,,,,,,,,,,,,,,,,,,,,,,,,,,,,,,,,,,,,,"59.7",",,,0",,,"0",",,,0","11.4",",0","17.7",",,,0","5.2",",,,0",,,,,,,,,,,,
"USC00123497","GRANDVIEW, IN US","37.9541","-86.9858","124.1","2004-10",,,"646.3","0","7.8",",0","15",",0","9",",0","0",",0","0",",0","0",",0","2",",0","0",",0","20",",0","0",",0","0.0",",0,17,+","0",",,0,31,+","0.0",",,0,31,+","43.7",",,0,19,","29.4",",0,08,",,,"115.6","0",,,,,,,,,,,,,"103.2",",0",,,,,,,,,,,,,,,,,,,,,,,,,,,,,,,,,,,,,,,,,,,,,,,,,,,,,,,,,,,,,,,,,"137.3",",,,0",,,"0",",,,0","15.3",",0","22.3",",,,0","8.3",",,,0",,,,,,,,,,,,
"USC00129113","VINCENNES 5 NE, IN US","38.7386","-87.4877","137.8","2004-10",,,"664.0","0","2.2",",0","14",",0","9",",0","0",",0","0",",0","0",",0","2",",0","0",",0","14",",0","0",",0","0.0",",0,05,+","0",",,0,31,+","0.0",",,0,31,+","50.5",",,0,15,","28.3",",0,08,",,,"156.5","0",,,,,,,,,,,,,"133.8",",0",,,,,,,,,,,,,,,,,,,,,,,,,,,,,,,,,,,,,,,,,,,,,,,,,,,,,,,,,,,,,,,,,"235.4",",,,0",,,"0",",,,0","14.1",",0","20.5",",,,0","7.7",",,,0",,,,,,,,,,,,
"USW00093817","EVANSVILLE REGIONAL AIRPORT, IN US","38.05015","-87.51465","122.5","2004-10","2.9",",X","686.0","0","8.7",",0","11",",0","7",",0","0",",0","0",",0","0",",0","0",",0","0",",0","15",",0","0",",0","0.6",",0,17,","0",",,0,31,+","0.0",",,0,31,+","53.6",",,0,18,","28.3",",0,07,",,,"110.3","0",,,,,,,,,,,,,"97.3",",0",,,,,,,,,,,,,,,,,,,,,,,,,,,,,,,,,,,,,,,,,,,,,,,,,,,,,,,,,,,,,,,,,"142.8",",,,0",,,"0",",,,0","15.5",",0","21.2",",,,0","9.7",",,,0",,,"280",",X","240",",X",,,"14.3",",X","102.8",",X"
"USC00129511","WHEATFIELD, IN US","41.1947","-87.0577","202.7","2004-10",,,,,"2.5","2,0","5",",0","5",",0","0",",0","0",",0","0","2,0","6","2,0","0","2,0","9","2,0","0","2,0","-2.2","2,0,06,+","0",",,0,31,+","0.0",",,0,31,+","15.2",",,0,24,","26.1","2,0,30,",,,,,,,,,,,,,,,,,"210.5","2,0",,,,,,,,,,,,,,,,,,,,,,,,,,,,,,,,,,,,,,,,,,,,,,,,,,,,,,,,,,,,,,,,,"43.2",",,,0",,,"0",",,,0","11.2","2,0","18.1","2,,,0","4.2","2,,,0",,,,,,,,,,,,
"USC00126401","NORTH JUDSON 3 S, IN US","41.1734","-86.7571","213.4","2004-10",,,,,,,"9",",0","5",",0","0",",0","0",",0",,,,,,,,,,,,,"0",",,0,31,+","0.0",",,0,31,+","25.9",",,0,19,",,,,,,,,,,,,,,,,,,,,,,,,,,,,,,,,,,,,,,,,,,,,,,,,,,,,,,,,,,,,,,,,,,,,,,,,,,,,,,,,,,,,,"55.3",",,,0",,,"0",",,,0",,,,,,,,,,,,,,,,,,
"USW00093819","INDIANAPOLIS INTERNATIONAL AIRPORT, IN US","39.72515","-86.2816","241.3","2004-10","4.1",",X","510.4","0","2.8",",0","12",",0","6",",0","0",",0","0",",0","0",",0","1",",0","0",",0","10",",0","0",",0","-0.6",",0,17,","0",",,0,31,+","0.0",",,0,31,+","31.5",",,0,18,","25.6",",0,07,",,,"184.7","0",,,,,,,,,,,,,"159.3",",0",,,,,,,,,,,,,,,,,,,,,,,,,,,,,,,,,,,,,,,,,,,,,,,,,,,,,,,,,,,,,,,,,"109.5",",,,0",,,"0",",,,0","13.3",",0","18.4",",,,0","8.2",",,,0",,,"250",",X","260",",X",,,"19.7",",X","22.8",",X"
"USR0000IBAI","BAILLY INDIANA, IN US","41.6317","-87.0878","197.2","2004-10",,,"333.2","U","3.1",",U",,,,,,,,,"0",",U","1",",U","0",",U","8",",U","0",",U","0.0",",U,17,",,,,,,,"25.6",",U,29,",,,"262.6","U",,,,,,,,,,,,,"194.6",",U",,,,,,,,,,,,,,,,,,,,,,,,,,,,,,,,,,,,,,,,,,,,,,,,,,,,,,,,,,,,,,,,,,,,,,,"12.2",",U","16.9",",,,U","7.4",",,,U",,,,,,,,,,,,
"USC00121873","CRAWFORDSVILLE 6 SE, IN US","40.0028","-86.8011","254.8","2004-10",,,,,"0.0","1,0","12",",0","7",",0",,,"0",",0","0","1,0","12","1,0","0",",0","12",",0","0",",0","-6.7","1,0,06,+",,,"0.0",",T,0,30,+","25.7",",,0,19,","26.1",",0,08,",,,"394.0",,,,,,,,,,,,,,"255.5",",0",,,,,,,,,,,,,,,,,,,,,,,,,,,,,,,,,,,,,,,,,,,,,,,,,,,,,,,,,,,,,,,,,"86.2",",,,0",,,"0",",T,,0","9.9","1,0","18.8",",,,0","0.9","1,,,0",,,,,,,,,,,,
"USC00120784","BLOOMINGTON INDIANA UNIVERSITY, IN US","39.17399","-86.52076","253.0","2004-10",,,"546.9","0","4.8",",0","12",",0","7",",0","0",",0","0",",0","0",",0","0",",0","0",",0","12",",0","0",",0","1.7",",0,18,+","0",",,0,31,+","0.0",",,0,31,+","63.8",",,0,19,","25.6",",0,30,+",,,"183.5","0",,,,,,,,,,,,,"152.9",",0",,,,,,,,,,,,,,,,,,,,,,,,,,,,,,,,,,,,,,,,,,,,,,,,,,,,,,,,,,,,,,,,,"141.7",",,,0",,,"0",",,,0","13.6",",0","19.1",",,,0","8.0",",,,0",,,,,,,,,,,,
"USC00126801","PENCE 1 SW, IN US","40.3522","-87.525","213.4","2004-10",,,,,,,"6",",0","5",",0","0",",0","0",",0",,,,,,,,,,,,,"0",",,0,31,+","0.0",",,0,31,+","36.1",",,0,31,",,,,,,,,,,,,,,,,,,,,,,,,,,,,,,,,,,,,,,,,,,,,,,,,,,,,,,,,,,,,,,,,,,,,,,,,,,,,,,,,,,,,,"97.1",",,,0",,,"0",",,,0",,,,,,,,,,,,,,,,,,
"USC00128549","SUNMAN 1 E, IN US","39.2347","-85.0756","310.9","2004-10",,,,,,,"8",",0","7",",0","0",",0","0",",0",,,,,,,,,,,,,"0",",,0,31,+","0.0",",,0,31,+","48.5",",,0,19,",,,,,,,,,,,,,,,,,,,,,,,,,,,,,,,,,,,,,,,,,,,,,,,,,,,,,,,,,,,,,,,,,,,,,,,,,,,,,,,,,,,,,"118.9",",,,0",,,"0",",,,0",,,,,,,,,,,,,,,,,,
"USC00123777","HARTFORD CITY 4 ESE, IN US","40.4355","-85.2891","281.6","2004-10",,,,,"2.5","3,0","10",",0","5",",0","0",",0","0","2,0","0","3,0","1","3,0","0","1,0","10","1,0","0","1,0","-1.1","3,0,05,","0",",,0,31,+","0.0","2,,0,31,+","15.0",",,0,19,","25.0","1,0,30,+",,,"237.5","0",,,,,,,,,,,,,"179.5","1,0",,,,,,,,,,,,,,,,,,,,,,,,,,,,,,,,,,,,,,,,,,,,,,,,,,,,,,,,,,,,,,,,,"56.7",",,,0",,,"0","2,,,0","12.2","3,0","17.8","1,,,0","6.6","3,,,0",,,,,,,,,,,,
"USC00122605","ELLISTON, IN US","39.0313","-86.9371","203.9","2004-10",,,,,,,"11",",0","7",",0","0",",0","0",",0",,,,,,,,,,,,,"0",",,0,31,+","0.0",",,0,31,+","57.2",",,0,19,",,,,,,,,,,,,,,,,,,,,,,,,,,,,,,,,,,,,,,,,,,,,,,,,,,,,,,,,,,,,,,,,,,,,,,,,,,,,,,,,,,,,,"163.2",",,,0",,,"0",",,,0",,,,,,,,,,,,,,,,,,
"USR0000IBIO","BIG OAKS INDIANA, IN US","38.9253","-85.3625","274.3","2004-10",,,,,"7.0",",U",,,,,,,,,"0",",U","1",",U","0",",U","11",",U","0",",U","-0.6",",U,06,",,,,,,,"26.7",",U,29,",,,"206.4","U",,,,,,,,,,,,,"161.0",",U",,,,,,,,,,,,,,,,,,,,,,,,,,,,,,,,,,,,,,,,,,,,,,,,,,,,,,,,,,,,,,,,,,,,,,,"13.4",",U","19.0",",,,U","7.7",",,,U",,,,,,,,,,,,
"USC00123418","GOSHEN 3 SW, IN US","41.5575","-85.8825","266.7","2004-10",,,"309.8","0","0.8",",0","10",",0","7",",0","0",",0","0",",0","0",",0","1",",0","0",",0","8",",0","0",",0","-1.1",",0,05,","0",",,0,31,+","0.0",",,0,31,+","10.2",",,0,23,","24.4",",0,07,",,,"266.6","0",,,,,,,,,,,,,"205.5",",0",,,,,,,,,,,,,,,,,,,,,,,,,,,,,,,,,,,,,,,,,,,,,,,,,,,,,,,,,,,,,,,,,"34.6",",,,0",,,"0",",,,0","11.7",",0","17.1",",,,0","6.4",",,,0",,,,,,,,,,,,
"USC00129080","VEVAY, IN US","38.74361","-85.07611","150.9","2004-10",,,"706.3","0","9.5",",0","13",",0","7",",0","0",",0","0",",0","0",",0","0",",0","0",",0","16",",0","0",",0","1.7",",0,17,","0",",,0,31,+","0.0",",,0,31,+","113.0",",,0,18,","28.3",",0,07,",,,"120.1","0",,,,,,,,,,,,,"112.0",",0",,,,,,,,,,,,,,,,,,,,,,,,,,,,,,,,,,,,,,,,,,,,,,,,,,,,,,,,,,,,,,,,,"177.1",",,,0",,,"0",",,,0","15.0",",0","20.9",",,,0","9.2",",,,0",,,,,,,,,,,,
"USW00014829","GOSHEN MUNICIPAL AIRPORT, IN US","41.52651","-85.78721","251.2","2004-10","4.0",",B","283.6","W","1.7","2,W","10","2,W","5","2,W",,,,,"0","2,W","5","2,W","0","2,W","7","2,W","0","2,W","-3.3","2,W,05,",,,,,"5.3","2,,W,08,","24.4","2,W,07,",,,"301.6","W",,,,,,,,,,,,,"215.8","2,W",,,,,,,,,,,,,,,,,,,,,,,,,,,,,,,,,,,,,,,,,,,,,,,,,,,,,,,,,,,,,,,,,"25.0","2,,,W",,,,,"10.9","2,W","17.0","2,,,W","4.9","2,,,W",,,"230","2,W","240","2,W",,,"18.3","2,W","21.9","2,W"
"USW00014827","FORT WAYNE INTERNATIONAL AIRPORT, IN US","40.97248","-85.20636","243.0","2004-10","4.0",",X","326.4","0","1.4",",0","12",",0","4",",0","0",",0","0",",0","0",",0","3",",0","0",",0","8",",0","0",",0","0.0",",0,17,+","0",",,0,31,+","0.0",",,0,31,+","14.2",",,0,23,","25.6",",0,07,",,,"269.9","0",,,,,,,,,,,,,"209.6",",0",,,,,,,,,,,,,,,,,,,,,,,,,,,,,,,,,,,,,,,,,,,,,,,,,,,,,,,,,,,,,,,,,"44.0",",,,0",,,"0",",,,0","11.6",",0","17.5",",,,0","5.7",",,,0",,,"250",",X","260",",X",,,"18.3",",X","22.8",",X"
"USC00129243","WARSAW 5 SW, IN US","41.1719","-85.9192","259.1","2004-10",,,,,,,"11",",0","6",",0","0",",0","0",",0",,,,,,,,,,,,,"0",",,0,31,+","0.0",",,0,31,+","27.2",",,0,30,",,,,,,,,,,,,,,,,,,,,,,,,,,,,,,,,,,,,,,,,,,,,,,,,,,,,,,,,,,,,,,,,,,,,,,,,,,,,,,,,,,,,,"62.9",",,,0",,,"0",",,,0",,,,,,,,,,,,,,,,,,
"USC00125562","MEROM 2 ESE, IN US","39.0446","-87.529","146.3","2004-10",,,,,,,"9","3,0","8","3,0","0",",0","0",",0",,,,,,,,,,,,,"0",",,0,31,+","0.0",",,0,31,+","50.8","3,,0,19,",,,,,,,,,,,,,,,,,,,,,,,,,,,,,,,,,,,,,,,,,,,,,,,,,,,,,,,,,,,,,,,,,,,,,,,,,,,,,,,,,,,,,"201.3","1,a,,0",,,"0",",,,0",,,,,,,,,,,,,,,,,,
"USC00127069","PORTLAND 1 SW, IN US","40.4174","-84.9925","277.4","2004-10",,,,,"3.3","4,0","10",",0","7",",0","0",",0","0",",0","0","4,0","4","4,0","0",",0","9",",0","0",",0","-0.6","4,0,02,","0",",,0,31,+","0.0",",,0,31,+","16.8",",,0,19,","25.0",",0,30,",,,"249.8","0",,,,,,,,,,,,,"197.0",",0",,,,,,,,,,,,,,,,,,,,,,,,,,,,,,,,,,,,,,,,,,,,,,,,,,,,,,,,,,,,,,,,,"71.5",",,,0",,,"0",",,,0","11.0","4,0","17.6",",,,0","4.4","4,,,0",,,,,,,,,,,,
"USC00128036","SHOALS 8 S, IN US","38.5529","-86.7944","145.4","2004-10",,,,,"4.7","2,0","10",",0","7",",0","0",",0","0",",0","0","2,0","2","2,0","0","2,0","13","2,0","0","2,0","-1.7","2,0,17,","0",",,0,31,+","0.0",",,0,31,+","64.8",",,0,19,","27.2","2,0,08,",,,,,,,,,,,,,,,,,"123.6","2,0",,,,,,,,,,,,,,,,,,,,,,,,,,,,,,,,,,,,,,,,,,,,,,,,,,,,,,,,,,,,,,,,,"193.8",",,,0",,,"0",",,,0","14.2","2,0","20.4","2,,,0","8.1","2,,,0",,,,,,,,,,,,
"USC00124356","JAMESTOWN 2 E, IN US","39.9237","-86.5984","293.2","2004-10",,,"397.0","0","2.5",",0","9",",0","8",",0","0",",0","0",",0","0",",0","3",",0","0",",0","12",",0","0",",0","-1.1",",0,17,","0",",,0,31,+","0.0",",,0,31,+","19.6",",,0,13,","25.6",",0,08,",,,"238.2","0",,,,,,,,,,,,,"184.9",",0",,,,,,,,,,,,,,,,,,,,,,,,,,,,,,,,,,,,,,,,,,,,,,,,,,,,,,,,,,,,,,,,,"86.5",",,,0",,,"0",",,,0","12.4",",0","18.7",",,,0","6.2",",,,0",,,,,,,,,,,,
"USC00120550","BEDFORD 4 SW, IN US","38.8396","-86.5216","177.1","2004-10",,,,,,,"14",",0","11",",0","0",",0","0",",0",,,,,,,,,,,,,"0",",,0,31,+","0.0",",,0,31,+","70.9",",,0,18,",,,,,,,,,,,,,,,,,,,,,,,,,,,,,,,,,,,,,,,,,,,,,,,,,,,,,,,,,,,,,,,,,,,,,,,,,,,,,,,,,,,,,"202.3",",,,0",,,"0",",,,0",,,,,,,,,,,,,,,,,,
"USC00124910","LEBANON 6 W, IN US","40.0505","-86.5744","281.9","2004-10",,,,,,,"12",",0","8",",0","0",",0","0",",0",,,,,,,,,,,,,"0",",,0,31,+","0.0",",,0,31,+","20.8",",,0,19,",,,,,,,,,,,,,,,,,,,,,,,,,,,,,,,,,,,,,,,,,,,,,,,,,,,,,,,,,,,,,,,,,,,,,,,,,,,,,,,,,,,,,"71.0",",,,0",,,"0",",,,0",,,,,,,,,,,,,,,,,,
"USC00123547","GREENSBURG, IN US","39.3475","-85.4891","285.6","2004-10",,,"548.1","0","5.5",",0","13",",0","6",",0","0",",0","0",",0","0",",0","0",",0","0",",0","11",",0","0",",0","1.7",",0,17,+","0",",,0,31,+","0.0",",,0,31,+","52.1",",,0,19,","25.6",",0,30,",,,"193.3","0",,,,,,,,,,,,,"158.9",",0",,,,,,,,,,,,,,,,,,,,,,,,,,,,,,,,,,,,,,,,,,,,,,,,,,,,,,,,,,,,,,,,,"97.7",",,,0",,,"0",",,,0","13.4",",0","18.5",",,,0","8.2",",,,0",,,,,,,,,,,,
"USC00126416","NORTH LIBERTY, IN US","41.53611","-86.43611","228.6","2004-10",,,,,,,"8",",0","5",",0","0",",0","0",",0",,,,,,,,,,,,,"0",",,0,31,+","0.0",",,0,31,+","16.0",",,0,24,",,,,,,,,,,,,,,,,,,,,,,,,,,,,,,,,,,,,,,,,,,,,,,,,,,,,,,,,,,,,,,,,,,,,,,,,,,,,,,,,,,,,,"46.8",",,,0",,,"0",",,,0",,,,,,,,,,,,,,,,,,
"USC00120830","BLUFFTON 6 N, IN US","40.8143","-85.1546","262.4","2004-10",,,"415.3","0","2.5","2,0","12",",0","7",",0","0",",0","0",",0","0","1,0","1","1,0","0","1,0","10","1,0","0","1,0","0.0","1,0,03,","0",",,0,31,+","0.0",",,0,31,+","21.1",",,0,19,","25.6","1,0,08,",,,"239.0","0",,,,,,,,,,,,,"188.0","1,0",,,,,,,,,,,,,,,,,,,,,,,,,,,,,,,,,,,,,,,,,,,,,,,,,,,,,,,,,,,,,,,,,"60.1",",,,0",,,"0",",,,0","11.7","2,0","17.3","1,,,0","6.0","1,,,0",,,,,,,,,,,,
"USC00121647","CLOVERDALE 4 WNW, IN US","39.5386","-86.8522","253.0","2004-10",,,,,,,"10",",0","8",",0","0",",0","0",",0",,,,,,,,,,,,,"0",",,0,31,+","0.0",",,0,31,+","48.8",",,0,24,",,,,,,,,,,,,,,,,,,,,,,,,,,,,,,,,,,,,,,,,,,,,,,,,,,,,,,,,,,,,,,,,,,,,,,,,,,,,,,,,,,,,,"166.7",",,,0",,,"0",",,,0",,,,,,,,,,,,,,,,,,
"USW00053842","INDIANAPOLIS EAGLE CREEK AIRPORT, IN US","39.82483","-86.29583","247.4","2004-10","3.0",",W","462.4","W","3.1",",W","15",",W","6",",W",,,,,"0",",W","0",",W","0",",W","10",",W","0",",W","1.1",",W,17,+",,,,,"25.7",",,W,18,","25.6",",W,07,",,,"187.6","W",,,,,,,,,,,,,"163.1",",W",,,,,,,,,,,,,,,,,,,,,,,,,,,,,,,,,,,,,,,,,,,,,,,,,,,,,,,,,,,,,,,,,"100.4",",,,W",,,,,"13.2",",W","18.3",",,,W","8.0",",,,W",,,"250",",W","250",",W",,,"16.1",",W","20.6",",W"
"USW00014835","LAFAYETTE PURDUE UNIVERSITY AIRPORT, IN US","40.41236","-86.94739","181.7","2004-10","3.6",",W","439.7","W","4.7",",W","14",",W","9",",W",,,,,"0",",W","3",",W","0",",W","12",",W","0",",W","-1.7",",W,05,",,,,,"20.3",",,W,18,","27.2",",W,07,",,,"213.6","W",,,,,,,,,,,,,"178.4",",W",,,,,,,,,,,,,,,,,,,,,,,,,,,,,,,,,,,,,,,,,,,,,,,,,,,,,,,,,,,,,,,,,"68.8",",,,W",,,,,"12.7",",W","18.6",",,,W","6.9",",,,W",,,"250",",W","260",",W",,,"16.1",",W","21.5",",W"
"USC00129253","WASHINGTON 1 W, IN US","38.6489","-87.1989","146.9","2004-10",,,,,"7.9","1,0","8","2,0","8","2,0","0",",0","0",",0","0","1,0","0","1,0","0","1,0","12","1,0","0","1,0","0.6","1,0,17,+","0",",,0,31,+","0.0",",,0,31,+","53.8","2,,0,18,","28.3","1,0,07,",,,"141.7","0",,,,,,,,,,,,,"120.2","1,0",,,,,,,,,,,,,,,,,,,,,,,,,,,,,,,,,,,,,,,,,,,,,,,,,,,,,,,,,,,,,,,,,"163.4",",a,,0",,,"0",",,,0","14.6","1,0","20.1","1,,,0","9.1","1,,,0",,,,,,,,,,,,
"USC00125174","LOWELL WWTP, IN US","41.26433","-87.41748","202.7","2004-10",,,"344.6","0","2.8",",0","10",",0","7",",0","0",",0","0",",0","0",",0","6",",0","0",",0","9",",0","0",",0","-2.2",",0,06,+","0",",,0,31,+","0.0",",,0,31,+","22.1",",,0,15,","26.7",",0,30,+",,,"295.8","0",,,,,,,,,,,,,"219.4",",0",,,,,,,,,,,,,,,,,,,,,,,,,,,,,,,,,,,,,,,,,,,,,,,,,,,,,,,,,,,,,,,,,"71.2",",,,0",,,"0",",,,0","11.4",",0","18.2",",,,0","4.5",",,,0",,,,,,,,,,,,
"USC00125050","LIBERTY 3 SSE, IN US","39.5903","-84.9208","301.8","2004-10",,,,,,,"12",",0","7",",0","0",",0","0",",0",,,,,,,,,,,,,"0",",,0,31,+","0.0",",T,0,17,","51.3",",,0,19,",,,,,,,,,,,,,,,,,,,,,,,,,,,,,,,,,,,,,,,,,,,,,,,,,,,,,,,,,,,,,,,,,,,,,,,,,,,,,,,,,,,,,"97.1",",,,0",,,"0",",T,,0",,,,,,,,,,,,,,,,,,
