"STATION","NAME","LATITUDE","LONGITUDE","ELEVATION","DATE","AWND","AWND_ATTRIBUTES","CDSD","CDSD_ATTRIBUTES","CLDD","CLDD_ATTRIBUTES","DP01","DP01_ATTRIBUTES","DP10","DP10_ATTRIBUTES","DSND","DSND_ATTRIBUTES","DSNW","DSNW_ATTRIBUTES","DT00","DT00_ATTRIBUTES","DT32","DT32_ATTRIBUTES","DX32","DX32_ATTRIBUTES","DX70","DX70_ATTRIBUTES","DX90","DX90_ATTRIBUTES","EMNT","EMNT_ATTRIBUTES","EMSD","EMSD_ATTRIBUTES","EMSN","EMSN_ATTRIBUTES","EMXP","EMXP_ATTRIBUTES","EMXT","EMXT_ATTRIBUTES","EVAP","EVAP_ATTRIBUTES","HDSD","HDSD_ATTRIBUTES","HN01","HN01_ATTRIBUTES","HN02","HN02_ATTRIBUTES","HN03","HN03_ATTRIBUTES","HN04","HN04_ATTRIBUTES","HN05","HN05_ATTRIBUTES","HN06","HN06_ATTRIBUTES","HTDD","HTDD_ATTRIBUTES","HX01","HX01_ATTRIBUTES","HX02","HX02_ATTRIBUTES","HX03","HX03_ATTRIBUTES","HX04","HX04_ATTRIBUTES","HX05","HX05_ATTRIBUTES","HX06","HX06_ATTRIBUTES","LN01","LN01_ATTRIBUTES","LN02","LN02_ATTRIBUTES","LN03","LN03_ATTRIBUTES","LN04","LN04_ATTRIBUTES","LN05","LN05_ATTRIBUTES","LN06","LN06_ATTRIBUTES","LX01","LX01_ATTRIBUTES","LX02","LX02_ATTRIBUTES","LX03","LX03_ATTRIBUTES","LX04","LX04_ATTRIBUTES","LX05","LX05_ATTRIBUTES","LX06","LX06_ATTRIBUTES","MN01","MN01_ATTRIBUTES","MN02","MN02_ATTRIBUTES","MN03","MN03_ATTRIBUTES","MN04","MN04_ATTRIBUTES","MN05","MN05_ATTRIBUTES","MN06","MN06_ATTRIBUTES","MNPN","MNPN_ATTRIBUTES","MX01","MX01_ATTRIBUTES","MX02","MX02_ATTRIBUTES","MX03","MX03_ATTRIBUTES","MX04","MX04_ATTRIBUTES","MX05","MX05_ATTRIBUTES","MX06","MX06_ATTRIBUTES","MXPN","MXPN_ATTRIBUTES","PRCP","PRCP_ATTRIBUTES","PSUN","PSUN_ATTRIBUTES","SNOW","SNOW_ATTRIBUTES","TAVG","TAVG_ATTRIBUTES","TMAX","TMAX_ATTRIBUTES","TMIN","TMIN_ATTRIBUTES","TSUN","TSUN_ATTRIBUTES","WDF2","WDF2_ATTRIBUTES","WDF5","WDF5_ATTRIBUTES","WDMV","WDMV_ATTRIBUTES","WSF2","WSF2_ATTRIBUTES","WSF5","WSF5_ATTRIBUTES"
"USC00122184","DEPUTY 1 WNW, IN US","38.7997","-85.6724","193.5","2008-10",,,,,,,"4",",0","3",",0","0",",0","0",",0",,,,,,,,,,,,,"0",",,0,31,+","0.0",",,0,31,+","26.2",",,0,08,",,,,,,,,,,,,,,,,,,,,,,,,,,,,,,,,,,,,,,,,,,,,,,,,,,,,,,,,,,,,,,,,,,,,,,,,,,,,,,,,,,,,,"58.4",",,,0",,,"0",",,,0",,,,,,,,,,,,,,,,,,
"USC00126420","NORTH MANCHESTER WWTP, IN US","40.9936","-85.7749","231.6","2008-10",,,"344.4","0","8.8",",0","6",",0","3",",0","0",",0","0",",0","0",",0","8",",0","0",",0","9",",0","0",",0","-3.9",",0,31,+","0",",,0,31,+","0.0",",,0,31,+","22.9",",,0,24,","30.0",",0,13,",,,"259.6","0",,,,,,,,,,,,,"237.9",",0",,,,,,,,,,,,,,,,,,,,,,,,,,,,,,,,,,,,,,,,,,,,,,,,,,,,,,,,,,,,,,,,,"44.2",",,,0",,,"0",",,,0","10.9",",0","17.4",",,,0","4.4",",,,0",,,,,,,,,,,,
"US1INOH0001","AURORA 3.6 SSE, IN US","39.01535","-84.887306","224.0","2008-10",,,,,,,,,,,,,,,,,,,,,,,,,,,,,,,,,,,,,,,,,,,,,,,,,,,,,,,,,,,,,,,,,,,,,,,,,,,,,,,,,,,,,,,,,,,,,,,,,,,,,,,,,,,,,,,,,,,,,"46.3",",a,,N",,,,,,,,,,,,,,,,,,,,,,
"US1INFD0009","GREENVILLE 0.6 S, IN US","38.362268","-85.98527","244.8","2008-10",,,,,,,"7","3,N","4","3,N",,,"0","3,N",,,,,,,,,,,,,,,"0.0","3,,N,31,+","41.4","3,,N,08,",,,,,,,,,,,,,,,,,,,,,,,,,,,,,,,,,,,,,,,,,,,,,,,,,,,,,,,,,,,,,,,,,,,,,,,,,,,,,,,,,,,,,"82.6","3,,,N",,,"0","3,,,N",,,,,,,,,,,,,,,,,,
"US1INOH0002","RISING SUN 4.1 WSW, IN US","38.937194","-84.931548","168.9","2008-10",,,,,,,"6","4,N","4","4,N",,,"0","3,N",,,,,,,,,,,,,,,"0.0","3,,N,31,+","17.8","4,,N,08,",,,,,,,,,,,,,,,,,,,,,,,,,,,,,,,,,,,,,,,,,,,,,,,,,,,,,,,,,,,,,,,,,,,,,,,,,,,,,,,,,,,,,"47.5","4,,,N",,,"0","3,,,N",,,,,,,,,,,,,,,,,,
"US1INML0006","PLYMOUTH 2.5 WSW, IN US","41.329704","-86.356804","248.1","2008-10",,,,,,,"15",",N","5",",N",,,"0",",N",,,,,,,,,,,,,,,"20.0",",,N,28,","24.1",",,N,16,",,,,,,,,,,,,,,,,,,,,,,,,,,,,,,,,,,,,,,,,,,,,,,,,,,,,,,,,,,,,,,,,,,,,,,,,,,,,,,,,,,,,,"73.2",",,,N",,,"20",",,,N",,,,,,,,,,,,,,,,,,
"US1INFD0002","GALENA 4.3 ENE, IN US","38.380331","-85.870439","285.0","2008-10",,,,,,,,,,,,,,,,,,,,,,,,,,,,,,,,,,,,,,,,,,,,,,,,,,,,,,,,,,,,,,,,,,,,,,,,,,,,,,,,,,,,,,,,,,,,,,,,,,,,,,,,,,,,,,,,,,,,,"71.1","3,a,,N",,,,,,,,,,,,,,,,,,,,,,
"US1INML0003","PLYMOUTH 1.1 SSE, IN US","41.331903","-86.307406","259.1","2008-10",,,,,,,"15",",N","6",",N","0",",N","0",",N",,,,,,,,,,,,,"13",",,N,28,","13.0",",,N,28,","24.1",",,N,16,",,,,,,,,,,,,,,,,,,,,,,,,,,,,,,,,,,,,,,,,,,,,,,,,,,,,,,,,,,,,,,,,,,,,,,,,,,,,,,,,,,,,,"74.9",",,,N",,,"13",",,,N",,,,,,,,,,,,,,,,,,
"USC00128723","TERRE HAUTE INDIANA STATE, IN US","39.4708","-87.408","154.5","2008-10",,,"648.9","0","20.4","3,0","7","2,0","4","2,0","0",",0","0",",0","0","3,0","3","3,0","0","2,0","15","2,0","0","2,0","-2.2","3,0,28,","0",",,0,31,+","0.0",",,0,31,+","25.1","2,,0,16,","31.1","2,0,13,",,,"136.5","0","19.4","2,,,0,3,2","18.9","3,,,0,5,2",,,,,,,,,"131.4","2,0","26.1","2,,,0,3,2","22.2","3,,,0,5,2",,,,,,,,,"3.3","2,,,0,3,2","8.3","3,,,0,5,2",,,,,,,,,"7.2","2,,,0,3,2","11.7","3,,,0,5,2",,,,,,,,,"13.5","2,,,0,3,2","15.0","3,,,0,5,2",,,,,,,,,,,"18.0","2,,,0,3,2","18.0","3,,,0,5,2",,,,,,,,,,,"61.0","2,,,0",,,"0",",,,0","14.4","3,0","21.7","2,,,0","7.1","3,,,0",,,,,,,,,,,,
"USC00127755","SALEM, IN US","38.6157","-86.0855","239.3","2008-10",,,,,"12.2",",0","4",",0","2",",0","0",",0","0",",0","0",",0","4",",0","0",",0","13",",0","0",",0","-3.3",",0,30,","0",",,0,31,+","0.0",",,0,31,+","34.3",",,0,08,","27.8",",0,13,+",,,,,,,,,,,,,,,,,"162.3",",0",,,,,,,,,,,,,,,,,,,,,,,,,,,,,,,,,,,,,,,,,,,,,,,,,,,,,,,,,,,,,,,,,"68.8",",,,0",,,"0",",,,0","13.5",",0","20.9",",,,0","6.1",",,,0",,,,,,,,,,,,
"USC00124244","INDIANA DUNES NATIONAL PARK, IN US","41.63178","-87.08803","208.2","2008-10",,,,,,,"15",",0","7",",0","0",",0","0",",0",,,,,,,,,,,,,"0",",,0,31,+","0.0",",,0,31,+","28.7",",,0,08,",,,,,,,,,,,,,,,,,,,,,,,,,,,,,,,,,,,,,,,,,,,,,,,,,,,,,,,,,,,,,,,,,,,,,,,,,,,,,,,,,,,,,"87.5",",,,0",,,"0",",,,0",,,,,,,,,,,,,,,,,,
"US1INML0001","BREMEN 2.0 WNW, IN US","41.453775","-86.192394","251.2","2008-10",,,,,,,"9","4,N","7","4,N",,,"0","4,N",,,,,,,,,,,,,,,"0.0","4,,N,31,+","19.3","4,,N,16,",,,,,,,,,,,,,,,,,,,,,,,,,,,,,,,,,,,,,,,,,,,,,,,,,,,,,,,,,,,,,,,,,,,,,,,,,,,,,,,,,,,,,"68.9","4,,,N",,,"0","4,,,N",,,,,,,,,,,,,,,,,,
"US1INML0002","WALKERTON 2.7 SSE, IN US","41.430196","-86.454908","221.0","2008-10",,,,,,,"15",",N","5",",N","0",",N","0",",N",,,,,,,,,,,,,"0",",T,N,28,","0.0",",T,N,28,","22.6",",,N,16,",,,,,,,,,,,,,,,,,,,,,,,,,,,,,,,,,,,,,,,,,,,,,,,,,,,,,,,,,,,,,,,,,,,,,,,,,,,,,,,,,,,,,"81.7",",,,N",,,"0",",T,,N",,,,,,,,,,,,,,,,,,
"USC00125337","MARION 2 N, IN US","40.58","-85.6586","240.8","2008-10",,,"437.9","0","7.2",",0","8",",0","4",",0","0",",0","0",",0","0",",0","6",",0","0",",0","10",",0","0",",0","-3.3",",0,31,+","0",",,0,31,+","0.0",",,0,31,+","22.4",",,0,25,","30.6",",0,13,",,,"226.4","0",,,,,,,,,,,,,"213.2",",0",,,,,,,,,,,,,,,,,,,,,,,,,,,,,,,,,,,,,,,,,,,,,,,,,,,,,,,,,,,,,,,,,"50.2",",,,0",,,"0",",,,0","11.7",",0","18.6",",,,0","4.8",",,,0",,,,,,,,,,,,
"USC00128967","J.T. MYERS LOCKS AND DAM, IN US","37.7952","-87.993","103.6","2008-10",,,"851.4","0","26.4",",0","3",",0","3",",0","0",",0","0",",0","0",",0","0",",0","0",",0","14",",0","0",",0","2.2",",0,28,+","0",",,0,31,+","0.0",",,0,31,+","27.9",",,0,24,","30.0",",0,11,",,,"119.0","0",,,,,,,,,,,,,"117.6",",0",,,,,,,,,,,,,,,,,,,,,,,,,,,,,,,,,,,,,,,,,,,,,,,,,,,,,,,,,,,,,,,,,"62.2",",,,0",,,"0",",,,0","15.4",",0","21.4",",,,0","9.4",",,,0",,,,,,,,,,,,
"USC00124249","INDIANAPOLIS EAGLE CREEK 4 NNE, IN US","39.90746","-86.28911","249.3","2008-10",,,,,,,"6",",0","4",",0","0",",0","0",",0",,,,,,,,,,,,,"0",",,0,31,+","0.0",",,0,31,+","14.2",",,0,03,",,,,,,,,,,,,,,,,,,,,,,,,,,,,,,,,,,,,,,,,,,,,,,,,,,,,,,,,,,,,,,,,,,,,,,,,,,,,,,,,,,,,,"37.9",",,,0",,,"0",",,,0",,,,,,,,,,,,,,,,,,
"USC00127999","SHELBYVILLE SEWAGE PLANT, IN US","39.5282","-85.7914","229.2","2008-10",,,"443.3","0","10.4",",0","4",",0","3",",0","0",",0","0",",0","0",",0","6",",0","0",",0","10",",0","0",",0","-2.8",",0,31,+","0",",,0,31,+","0.0",",,0,31,+","14.0",",,0,25,","29.4",",0,13,",,,"211.9","0",,,,,,,,,,,,,"198.5",",0",,,,,,,,,,,,,,,,,,,,,,,,,,,,,,,,,,,,,,,,,,,,,,,,,,,,,,,,,,,,,,,,,"37.8",",,,0",,,"0",",,,0","12.3",",0","19.2",",,,0","5.4",",,,0",,,,,,,,,,,,
"US1INGB0008","HAZLETON 2.5 S, IN US","38.45263","-87.5336","145.4","2008-10",,,,,,,"7",",N","3",",N",,,"0",",N",,,,,,,,,,,,,,,"0.0",",,N,31,+","11.7",",,N,24,",,,,,,,,,,,,,,,,,,,,,,,,,,,,,,,,,,,,,,,,,,,,,,,,,,,,,,,,,,,,,,,,,,,,,,,,,,,,,,,,,,,,,"26.6",",,,N",,,"0",",,,N",,,,,,,,,,,,,,,,,,
"US1INWN0004","CENTERVILLE 0.3 N, IN US","39.821065","-84.996339","310.0","2008-10",,,,,,,"6","1,N","4","1,N",,,"0","1,N",,,,,,,,,,,,,,,"0.0","1,,N,31,+","22.9","1,,N,25,",,,,,,,,,,,,,,,,,,,,,,,,,,,,,,,,,,,,,,,,,,,,,,,,,,,,,,,,,,,,,,,,,,,,,,,,,,,,,,,,,,,,,"42.8","1,,,N",,,"0","1,,,N",,,,,,,,,,,,,,,,,,
"USC00124372","JASPER, IN US","38.3856","-86.9406","137.2","2008-10",,,,,,,"4",",0","4",",0","0",",0","0",",0",,,,,,,,,,,,,"0",",,0,31,+","0.0",",,0,31,+","35.1",",,0,08,",,,,,,,,,,,,,,,,,,,,,,,,,,,,,,,,,,,,,,,,,,,,,,,,,,,,,,,,,,,,,,,,,,,,,,,,,,,,,,,,,,,,,"60.4",",,,0",,,"0",",,,0",,,,,,,,,,,,,,,,,,
"USC00127646","RUSHVILLE, IN US","39.6042","-85.4532","289.0","2008-10",,,"420.4","0","7.0",",0","5",",0","3",",0","0",",0","0",",0","0",",0","6",",0","0",",0","10",",0","0",",0","-3.3",",0,30,+","0",",,0,31,+","0.0",",,0,31,+","20.3",",,0,24,","28.9",",0,12,",,,"225.6","0",,,,,,,,,,,,,"204.3",",0",,,,,,,,,,,,,,,,,,,,,,,,,,,,,,,,,,,,,,,,,,,,,,,,,,,,,,,,,,,,,,,,,"43.6",",,,0",,,"0",",,,0","12.0",",0","18.7",",,,0","5.2",",,,0",,,,,,,,,,,,
"USC00126435","NORTH VERNON 2 ESE, IN US","39.00098","-85.59956","219.2","2008-10",,,"544.5","0","12.3",",0","6",",0","3",",0","0",",0","0",",0","0",",0","5",",0","0",",0","14",",0","0",",0","-3.9",",0,30,","0",",,0,31,+","0.0",",,0,31,+","28.4",",,0,24,","28.9",",0,12,+",,,"167.4","0",,,,,,,,,,,,,"158.9",",0",,,,,,,,,,,,,,,,,,,,,,,,,,,,,,,,,,,,,,,,,,,,,,,,,,,,,,,,,,,,,,,,,"56.4",",,,0",,,"0",",,,0","13.6",",0","21.1",",,,0","6.1",",,,0",,,,,,,,,,,,
"USC00127522","ROCKVILLE, IN US","39.7594","-87.2269","210.0","2008-10",,,,,"15.1",",0","7",",0","6",",0","0",",0","0",",0","0",",0","4",",0","0",",0","13",",0","0",",0","-2.2",",0,28,","0",",,0,31,+","0.0",",,0,31,+","13.2",",,0,16,","28.9",",0,12,+",,,"182.5","0",,,,,,,,,,,,,"170.6",",0",,,,,,,,,,,,,,,,,,,,,,,,,,,,,,,,,,,,,,,,,,,,,,,,,,,,,,,,,,,,,,,,,"57.6",",,,0",,,"0",",,,0","13.3",",0","20.1",",,,0","6.6",",,,0",,,,,,,,,,,,
"USC00128732","TERRE HAUTE WATER CORP, IN US","39.4755","-87.4193","137.8","2008-10",,,,,,,"4",",0","4",",0","0",",0","0",",0",,,,,,,,,,,,,"0",",,0,31,+","0.0",",,0,31,+","25.1",",,0,08,",,,,,,,,,,,,,,,,,,,,,,,,,,,,,,,,,,,,,,,,,,,,,,,,,,,,,,,,,,,,,,,,,,,,,,,,,,,,,,,,,,,,,"68.9",",,,0",,,"0",",,,0",,,,,,,,,,,,,,,,,,
"USC00126437","VERNON 1 ENE, IN US","38.9886","-85.5859","228.6","2008-10",,,,,,,"7","2,0","3","2,0","0",",0","0",",0",,,,,,,,,,,,,"0",",T,0,28,","0.0",",T,0,28,","18.8","2,,0,08,",,,,,,,,,,,,,,,,,,,,,,,,,,,,,,,,,,,,,,,,,,,,,,,,,,,,,,,,,,,,,,,,,,,,,,,,,,,,,,,,,,,,,"54.8",",a,,0",,,"0",",T,,0",,,,,,,,,,,,,,,,,,
"US1INPM0006","RUSSELLVILLE 0.7 SW, IN US","39.850708","-86.993235","251.2","2008-10",,,,,,,"6","1,N","4","1,N",,,"0","1,N",,,,,,,,,,,,,,,"0.0","1,,N,31,+","15.5","1,,N,08,",,,,,,,,,,,,,,,,,,,,,,,,,,,,,,,,,,,,,,,,,,,,,,,,,,,,,,,,,,,,,,,,,,,,,,,,,,,,,,,,,,,,,"50.1","1,,,N",,,"0","1,,,N",,,,,,,,,,,,,,,,,,
"US1INPM0004","RUSSELLVILLE 0.3 SE, IN US","39.8540906","-86.980041","256.9","2008-10",,,,,,,"6",",N","4",",N",,,"0",",N",,,,,,,,,,,,,,,"0.0",",,N,31,+","15.2",",,N,08,",,,,,,,,,,,,,,,,,,,,,,,,,,,,,,,,,,,,,,,,,,,,,,,,,,,,,,,,,,,,,,,,,,,,,,,,,,,,,,,,,,,,,"49.2",",,,N",,,"0",",,,N",,,,,,,,,,,,,,,,,,
"US1INPM0003","FILLMORE 3.1 NNW, IN US","39.714199","-86.768738","246.0","2008-10",,,,,,,"4",",N","4",",N",,,"0",",N",,,,,,,,,,,,,,,"0.0",",,N,31,+","22.6",",,N,08,",,,,,,,,,,,,,,,,,,,,,,,,,,,,,,,,,,,,,,,,,,,,,,,,,,,,,,,,,,,,,,,,,,,,,,,,,,,,,,,,,,,,,"46.0",",,,N",,,"0",",,,N",,,,,,,,,,,,,,,,,,
"US1INPM0008","BAINBRIDGE 5.7 W, IN US","39.762215","-86.919097","260.3","2008-10",,,,,,,"6",",N","4",",N",,,"0",",N",,,,,,,,,,,,,,,"0.0",",,N,31,+","15.2",",,N,08,",,,,,,,,,,,,,,,,,,,,,,,,,,,,,,,,,,,,,,,,,,,,,,,,,,,,,,,,,,,,,,,,,,,,,,,,,,,,,,,,,,,,,"44.5",",,,N",,,"0",",,,N",,,,,,,,,,,,,,,,,,
"US1INPM0007","RUSSELLVILLE 1.2 SW, IN US","39.845045","-87.000576","239.6","2008-10",,,,,,,"4",",N","4",",N",,,"0",",N",,,,,,,,,,,,,,,"0.0",",,N,31,+","17.3",",,N,08,",,,,,,,,,,,,,,,,,,,,,,,,,,,,,,,,,,,,,,,,,,,,,,,,,,,,,,,,,,,,,,,,,,,,,,,,,,,,,,,,,,,,,"52.1",",,,N",,,"0",",,,N",,,,,,,,,,,,,,,,,,
"US1INOW0002","SPENCER 4.4 E, IN US","39.29467","-86.68782","228.9","2008-10",,,,,,,"7",",N","4",",N",,,"0",",N",,,,,,,,,,,,,,,"0.0",",,N,31,+","17.5",",,N,08,",,,,,,,,,,,,,,,,,,,,,,,,,,,,,,,,,,,,,,,,,,,,,,,,,,,,,,,,,,,,,,,,,,,,,,,,,,,,,,,,,,,,,"44.8",",,,N",,,"0",",,,N",,,,,,,,,,,,,,,,,,
"US1INOW0006","GOSPORT 4.0 WSW, IN US","39.32","-86.73","177.1","2008-10",,,,,,,"7",",N","4",",N",,,"0",",N",,,,,,,,,,,,,,,"0.0",",,N,31,+","34.5",",,N,08,",,,,,,,,,,,,,,,,,,,,,,,,,,,,,,,,,,,,,,,,,,,,,,,,,,,,,,,,,,,,,,,,,,,,,,,,,,,,,,,,,,,,,"62.0",",,,N",,,"0",",,,N",,,,,,,,,,,,,,,,,,
"USC00125237","MADISON SEWAGE PLANT, IN US","38.7369","-85.3941","140.2","2008-10",,,,,"14.5","1,0","4",",0","2",",0","0",",0","0",",0","0","1,0","2","1,0","0",",0","17",",0","0",",0","-0.6","1,0,30,","0",",,0,31,+","0.0",",,0,31,+","28.7",",,0,24,","29.4",",0,15,+",,,"139.1","0",,,,,,,,,,,,,"137.9",",0",,,,,,,,,,,,,,,,,,,,,,,,,,,,,,,,,,,,,,,,,,,,,,,,,,,,,,,,,,,,,,,,,"50.4",",,,0",,,"0",",,,0","14.3","1,0","21.5",",,,0","7.1","1,,,0",,,,,,,,,,,,
"US1INOW0009","SPENCER 7.0 S, IN US","39.185767","-86.778233","235.9","2008-10",,,,,,,"5",",N","4",",N",,,"0",",N",,,,,,,,,,,,,,,"0.0",",,N,31,+","14.0",",,N,08,",,,,,,,,,,,,,,,,,,,,,,,,,,,,,,,,,,,,,,,,,,,,,,,,,,,,,,,,,,,,,,,,,,,,,,,,,,,,,,,,,,,,,"33.6",",,,N",,,"0",",,,N",,,,,,,,,,,,,,,,,,
"USC00125117","LOGANSPORT CICOTT ST., IN US","40.7477","-86.3877","182.9","2008-10",,,"402.0","0","2.3",",0","9",",0","4",",0","0",",0","0",",0","0",",0","4",",0","0",",0","9",",0","0",",0","-2.8",",0,31,","0",",,0,31,+","0.0",",,0,31,+","28.7",",,0,08,","28.9",",0,13,",,,"233.9","0",,,,,,,,,,,,,"220.5",",0",,,,,,,,,,,,,,,,,,,,,,,,,,,,,,,,,,,,,,,,,,,,,,,,,,,,,,,,,,,,,,,,,"64.7",",,,0",,,"0",",,,0","11.3",",0","17.5",",,,0","5.1",",,,0",,,,,,,,,,,,
"US1INSH0010","SHELBYVILLE 7.1 SW, IN US","39.453772","-85.875224","216.1","2008-10",,,,,,,"5",",N","3",",N",,,"0",",N",,,,,,,,,,,,,,,"0.0",",,N,31,+","23.4",",,N,25,",,,,,,,,,,,,,,,,,,,,,,,,,,,,,,,,,,,,,,,,,,,,,,,,,,,,,,,,,,,,,,,,,,,,,,,,,,,,,,,,,,,,,"42.8",",,,N",,,"0",",,,N",,,,,,,,,,,,,,,,,,
"US1INLG0004","LAGRANGE 4.6 ESE, IN US","41.617","-85.335","284.1","2008-10",,,,,,,,,,,,,,,,,,,,,,,,,,,,,,,,,,,,,,,,,,,,,,,,,,,,,,,,,,,,,,,,,,,,,,,,,,,,,,,,,,,,,,,,,,,,,,,,,,,,,,,,,,,,,,,,,,,,,"53.5","2,a,,N",,,,,,,,,,,,,,,,,,,,,,
"US1INLG0003","SHIPSHEWANA 6.8 NNW, IN US","41.758996","-85.648027","248.1","2008-10",,,,,,,"12","3,N","4","3,N",,,"0","3,N",,,,,,,,,,,,,,,"0.0","3,,N,31,+","13.0","3,,N,16,",,,,,,,,,,,,,,,,,,,,,,,,,,,,,,,,,,,,,,,,,,,,,,,,,,,,,,,,,,,,,,,,,,,,,,,,,,,,,,,,,,,,,"68.1",",a,,N",,,"0","3,,,N",,,,,,,,,,,,,,,,,,
"US1INLG0001","ORLAND 6.6 SSW, IN US","41.638525","-85.201982","302.1","2008-10",,,,,,,,,,,,,,,,,,,,,,,,,,,,,,,,,,,,,,,,,,,,,,,,,,,,,,,,,,,,,,,,,,,,,,,,,,,,,,,,,,,,,,,,,,,,,,,,,,,,,,,,,,,,,,,,,,,,,"65.2","1,a,,N",,,,,,,,,,,,,,,,,,,,,,
"US1INLG0005","LAGRANGE 1.3 ENE, IN US","41.6527","-85.3963","288.0","2008-10",,,,,,,"13","1,N","6","1,N",,,"0","1,N",,,,,,,,,,,,,,,"0.0","1,,N,31,+","22.4","1,,N,25,",,,,,,,,,,,,,,,,,,,,,,,,,,,,,,,,,,,,,,,,,,,,,,,,,,,,,,,,,,,,,,,,,,,,,,,,,,,,,,,,,,,,,"66.4","1,,,N",,,"0","1,,,N",,,,,,,,,,,,,,,,,,
"US1INDV0001","WASHINGTON 1.5 NW, IN US","38.67543","-87.18996","145.1","2008-10",,,,,,,"5",",N","3",",N",,,"0",",N",,,,,,,,,,,,,,,"0.0",",,N,31,+","30.5",",,N,08,",,,,,,,,,,,,,,,,,,,,,,,,,,,,,,,,,,,,,,,,,,,,,,,,,,,,,,,,,,,,,,,,,,,,,,,,,,,,,,,,,,,,,"53.5",",,,N",,,"0",",,,N",,,,,,,,,,,,,,,,,,
"USC00124272","INDIANAPOLIS SE SIDE, IN US","39.7164","-86.0678","257.6","2008-10",,,"422.1","0","9.6",",0","6",",0","4",",0","0",",0","0",",0","0",",0","4",",0","0",",0","10",",0","0",",0","-3.3",",0,31,+","0",",,0,31,+","0.0",",,0,31,+","16.3",",,0,08,","28.9",",0,13,+",,,"228.7","0",,,,,,,,,,,,,"204.0",",0",,,,,,,,,,,,,,,,,,,,,,,,,,,,,,,,,,,,,,,,,,,,,,,,,,,,,,,,,,,,,,,,,"52.9",",,,0",,,"0",",,,0","12.1",",0","18.4",",,,0","5.8",",,,0",,,,,,,,,,,,
"USC00122096","DECATUR 1 N, IN US","40.8483","-84.9299","239.3","2008-10",,,"393.9","0","1.2",",0","7",",0","5",",0","0",",0","0",",0","0",",0","8",",0","0",",0","10",",0","0",",0","-3.9",",0,31,+","0",",,0,31,+","0.0",",,0,31,+","24.1",",,0,16,","29.4",",0,13,",,,"259.3","0",,,,,,,,,,,,,"235.3",",0",,,,,,,,,,,,,,,,,,,,,,,,,,,,,,,,,,,,,,,,,,,,,,,,,,,,,,,,,,,,,,,,,"65.9",",,,0",,,"0",",,,0","10.8",",0","17.3",",,,0","4.2",",,,0",,,,,,,,,,,,
"USC00128992","VALPARAISO 5 NNE, IN US","41.5436","-87.0319","264.9","2008-10",,,,,,,,,,,"0",",0","0",",0",,,,,,,,,,,,,"0",",,0,31,+","0.0",",T,0,28,",,,,,,,,,,,,,,,,,,,,,,,,,,,,,,,,,,,,,,,,,,,,,,,,,,,,,,,,,,,,,,,,,,,,,,,,,,,,,,,,,,,,,,,"116.5",",a,,0",,,"0",",T,,0",,,,,,,,,,,,,,,,,,
"USC00126697","PALMYRA, IN US","38.4075","-86.1105","234.7","2008-10",,,,,,,"2",",0","2",",0","0",",0","0",",0",,,,,,,,,,,,,"0",",,0,31,+","0.0",",,0,31,+","53.3",",,0,25,",,,,,,,,,,,,,,,,,,,,,,,,,,,,,,,,,,,,,,,,,,,,,,,,,,,,,,,,,,,,,,,,,,,,,,,,,,,,,,,,,,,,,"99.0",",,,0",,,"0",",,,0",,,,,,,,,,,,,,,,,,
"US1INNB0001","KENDALLVILLE 0.2 W, IN US","41.442819","-85.262322","303.0","2008-10",,,,,,,"15",",N","4",",N","0","2,N","0",",N",,,,,,,,,,,,,"0","2,,N,31,+","0.0",",T,N,29,","21.1",",,N,25,",,,,,,,,,,,,,,,,,,,,,,,,,,,,,,,,,,,,,,,,,,,,,,,,,,,,,,,,,,,,,,,,,,,,,,,,,,,,,,,,,,,,,"48.2",",,,N",,,"0",",T,,N",,,,,,,,,,,,,,,,,,
"USC00129605","WILLIAMS 3 SW, IN US","38.7669","-86.6846","166.7","2008-10",,,,,,,"5",",0","3",",0","0",",0","0",",0",,,,,,,,,,,,,"0",",,0,31,+","0.0",",,0,31,+","36.8",",,0,08,",,,,,,,,,,,,,,,,,,,,,,,,,,,,,,,,,,,,,,,,,,,,,,,,,,,,,,,,,,,,,,,,,,,,,,,,,,,,,,,,,,,,,"62.0",",,,0",,,"0",",,,0",,,,,,,,,,,,,,,,,,
"US1INFL0003","ROCHESTER 2.4 NW, IN US","41.085157","-86.229331","232.9","2008-10",,,,,,,"10",",N","5",",N",,,"0",",N",,,,,,,,,,,,,,,"0.0",",T,N,28,","29.7",",,N,16,",,,,,,,,,,,,,,,,,,,,,,,,,,,,,,,,,,,,,,,,,,,,,,,,,,,,,,,,,,,,,,,,,,,,,,,,,,,,,,,,,,,,,"73.6",",,,N",,,"0",",T,,N",,,,,,,,,,,,,,,,,,
"US1INFL0004","ROCHESTER 7.2 WNW, IN US","41.116052","-86.314102","223.1","2008-10",,,,,,,"15",",N","6",",N",,,"0",",N",,,,,,,,,,,,,,,"0.0",",,N,31,+","20.8",",,N,16,",,,,,,,,,,,,,,,,,,,,,,,,,,,,,,,,,,,,,,,,,,,,,,,,,,,,,,,,,,,,,,,,,,,,,,,,,,,,,,,,,,,,,"63.8",",,,N",,,"0",",,,N",,,,,,,,,,,,,,,,,,
"US1INSH0005","SHELBYVILLE 0.8 SSW, IN US","39.512138","-85.779105","232.9","2008-10",,,,,,,"7","2,N","3","2,N",,,"0","2,N",,,,,,,,,,,,,,,"0.0","2,,N,31,+","15.7","2,,N,25,",,,,,,,,,,,,,,,,,,,,,,,,,,,,,,,,,,,,,,,,,,,,,,,,,,,,,,,,,,,,,,,,,,,,,,,,,,,,,,,,,,,,,"44.1","2,,,N",,,"0","2,,,N",,,,,,,,,,,,,,,,,,
"US1INSH0004","SHELBYVILLE 7.1 WSW, IN US","39.4944","-85.9041","226.5","2008-10",,,,,,,"7","1,N","3","1,N",,,"0","1,N",,,,,,,,,,,,,,,"0.0","1,,N,31,+","13.7","1,,N,25,",,,,,,,,,,,,,,,,,,,,,,,,,,,,,,,,,,,,,,,,,,,,,,,,,,,,,,,,,,,,,,,,,,,,,,,,,,,,,,,,,,,,,"41.0","1,,,N",,,"0","1,,,N",,,,,,,,,,,,,,,,,,
"US1INSH0009","FAIRLAND 0.5 ENE, IN US","39.603655","-85.854013","243.8","2008-10",,,,,,,"6",",N","4",",N",,,"0",",N",,,,,,,,,,,,,,,"0.0",",,N,31,+","15.2",",,N,08,",,,,,,,,,,,,,,,,,,,,,,,,,,,,,,,,,,,,,,,,,,,,,,,,,,,,,,,,,,,,,,,,,,,,,,,,,,,,,,,,,,,,,"46.0",",,,N",,,"0",",,,N",,,,,,,,,,,,,,,,,,
"US1INSH0007","MORRISTOWN 3.0 SSW, IN US","39.630961","-85.717071","263.0","2008-10",,,,,,,"3","1,N","3","1,N",,,"0","1,N",,,,,,,,,,,,,,,"0.0","1,,N,31,+","22.4","1,,N,24,",,,,,,,,,,,,,,,,,,,,,,,,,,,,,,,,,,,,,,,,,,,,,,,,,,,,,,,,,,,,,,,,,,,,,,,,,,,,,,,,,,,,,"38.4","1,,,N",,,"0","1,,,N",,,,,,,,,,,,,,,,,,
"US1INDV0013","PLAINVILLE 0.7 S, IN US","38.794166","-87.153502","143.9","2008-10",,,,,,,"5","1,N","3","1,N",,,"0","1,N",,,,,,,,,,,,,,,"0.0","1,,N,31,+","24.6","1,,N,08,",,,,,,,,,,,,,,,,,,,,,,,,,,,,,,,,,,,,,,,,,,,,,,,,,,,,,,,,,,,,,,,,,,,,,,,,,,,,,,,,,,,,,"43.2","1,,,N",,,"0","1,,,N",,,,,,,,,,,,,,,,,,
"USC00126340","NOBLESVILLE 3 W, IN US","40.0382","-86.0712","252.1","2008-10",,,,,,,,,,,"0",",0","0",",0",,,,,,,,,,,,,"0",",,0,31,+","0.0",",,0,31,+",,,,,,,,,,,,,,,,,,,,,,,,,,,,,,,,,,,,,,,,,,,,,,,,,,,,,,,,,,,,,,,,,,,,,,,,,,,,,,,,,,,,,,,,,,,"0",",,,0",,,,,,,,,,,,,,,,,,
"USC00126580","OOLITIC PURDUE EX FRM, IN US","38.88855","-86.55169","197.8","2008-10",,,"463.8","0","8.6",",0","8",",0","4",",0","0",",0","0",",0","0",",0","5",",0","0",",0","12",",0","0",",0","-3.3",",0,31,","0",",,0,31,+","0.0",",,0,31,+","35.6",",,0,08,","29.4",",0,13,+",,,"195.6","0","17.2",",,,0,3,2","17.2",",,,0,5,2",,,,,,,,,"189.4",",0","23.3",",,,0,3,2","19.4",",,,0,5,2",,,,,,,,,"2.2",",,,0,3,2","3.9",",,,0,5,2",,,,,,,,,"8.3",",,,0,3,2","7.2",",,,0,5,2",,,,,,,,,"10.2",",,,0,3,2","11.3",",,,0,5,2",,,,,,,,,,,"17.4",",,,0,3,2","14.7",",,,0,5,2",,,,,,,,,,,"75.6",",,,0",,,"0",",,,0","12.5",",0","20.0",",,,0","5.0",",,,0",,,,,,,,,,,,
"USC00126864","PERU, IN US","40.7646","-86.074","201.2","2008-10",,,,,,,"9",",0","4",",0","0",",0","0",",0",,,,,,,,,,,,,"0",",,0,31,+","0.0",",,0,31,+","29.2",",,0,15,",,,,,,,,,,,,,,,,,,,,,,,,,,,,,,,,,,,,,,,,,,,,,,,,,,,,,,,,,,,,,,,,,,,,,,,,,,,,,,,,,,,,,"66.6",",,,0",,,"0",",,,0",,,,,,,,,,,,,,,,,,
"US1INCK0016","BORDEN 3.1 S, IN US","38.414177","-85.929889","268.2","2008-10",,,,,,,,,,,,,,,,,,,,,,,,,,,,,,,,,,,,,,,,,,,,,,,,,,,,,,,,,,,,,,,,,,,,,,,,,,,,,,,,,,,,,,,,,,,,,,,,,,,,,,,,,,,,,,,,,,,,,"83.4","3,a,,N",,,,,,,,,,,,,,,,,,,,,,
"US1INCK0017","BORDEN 0.3 SW, IN US","38.465937","-85.948227","170.7","2008-10",,,,,,,"6",",N","4",",N",,,"0",",N",,,,,,,,,,,,,,,"0.0",",,N,31,+","43.2",",,N,08,",,,,,,,,,,,,,,,,,,,,,,,,,,,,,,,,,,,,,,,,,,,,,,,,,,,,,,,,,,,,,,,,,,,,,,,,,,,,,,,,,,,,,"81.1",",,,N",,,"0",",,,N",,,,,,,,,,,,,,,,,,
"US1INCK0018","JEFFERSONVILLE 0.8 NW, IN US","38.309792","-85.73601","147.8","2008-10",,,,,,,"5",",N","3",",N",,,"0",",N",,,,,,,,,,,,,,,"0.0",",,N,31,+","23.6",",,N,08,",,,,,,,,,,,,,,,,,,,,,,,,,,,,,,,,,,,,,,,,,,,,,,,,,,,,,,,,,,,,,,,,,,,,,,,,,,,,,,,,,,,,,"60.0",",,,N",,,"0",",,,N",,,,,,,,,,,,,,,,,,
"USC00126989","PLYMOUTH, IN US","41.3392","-86.3358","248.4","2008-10",,,"342.6","0","4.2",",0","11",",0","5",",0","1","2,0","1",",0","0",",0","7",",0","0",",0","4",",0","0",",0","-3.3",",0,31,+","25","2,,0,28,","33.0",",,0,28,","22.6",",,0,16,","28.9",",0,13,",,,"276.3","0",,,,,,,,,,,,,"246.1",",0",,,,,,,,,,,,,,,,,,,,,,,,,,,,,,,,,,,,,,,,,,,,,,,,,,,,,,,,,,,,,,,,,"75.6",",,,0",,,"33",",,,0","10.5",",0","16.3",",,,0","4.8",",,,0",,,,,,,,,,,,
"US1INPT0019","VALPARAISO 5.9 NW, IN US","41.526628","-87.143551","202.1","2008-10",,,,,,,"14","1,N","6","1,N",,,"0","1,N",,,,,,,,,,,,,,,"0.0","1,,N,31,+","31.5","1,,N,08,",,,,,,,,,,,,,,,,,,,,,,,,,,,,,,,,,,,,,,,,,,,,,,,,,,,,,,,,,,,,,,,,,,,,,,,,,,,,,,,,,,,,,"104.4","1,,,N",,,"0","1,,,N",,,,,,,,,,,,,,,,,,
"USC00122149","DELPHI, IN US","40.615","-86.666","169.5","2008-10",,,"394.7","0","2.3",",0","3",",0","3",",0","0",",0","0",",0","0",",0","6",",0","0",",0","11",",0","0",",0","-5.0",",0,30,","0",",,0,31,+","0.0",",,0,31,+","25.4",",,0,22,","30.0",",0,12,",,,"239.2","0",,,,,,,,,,,,,"214.1",",0",,,,,,,,,,,,,,,,,,,,,,,,,,,,,,,,,,,,,,,,,,,,,,,,,,,,,,,,,,,,,,,,,"60.2",",,,0",,,"0",",,,0","11.5",",0","18.5",",,,0","4.5",",,,0",,,,,,,,,,,,
"US1INSN0012","HUDSON 0.3 SE, IN US","41.53082","-85.07775","301.1","2008-10",,,,,,,"10",",N","4",",N",,,"0",",N",,,,,,,,,,,,,,,"0.0",",,N,31,+","21.8",",,N,25,",,,,,,,,,,,,,,,,,,,,,,,,,,,,,,,,,,,,,,,,,,,,,,,,,,,,,,,,,,,,,,,,,,,,,,,,,,,,,,,,,,,,,"53.3",",,,N",,,"0",",,,N",,,,,,,,,,,,,,,,,,
"US1INPT0018","HEBRON 3.7 NE, IN US","41.367069","-87.162253","223.1","2008-10",,,,,,,,,,,,,,,,,,,,,,,,,,,,,,,,,,,,,,,,,,,,,,,,,,,,,,,,,,,,,,,,,,,,,,,,,,,,,,,,,,,,,,,,,,,,,,,,,,,,,,,,,,,,,,,,,,,,,"101.2","2,a,,N",,,,,,,,,,,,,,,,,,,,,,
"USC00127959","SHAKAMAK STATE PARK, IN US","39.1613","-87.2436","167.3","2008-10",,,,,,,"3","2,0","2","2,0",,,"0","2,0",,,,,"0","3,0","12","3,0","0","3,0",,,,,"0.0","2,,0,31,+","19.3","2,,0,16,","28.3","3,0,13,+",,,,,,,,,,,,,,,,,,,,,,,,,,,,,,,,,,,,,,,,,,,,,,,,,,,,,,,,,,,,,,,,,,,,,,,,,,,,,,,,,,,"49.4",",a,,0",,,"0","2,,,0",,,"20.1","3,,,0",,,,,,,,,,,,,,
"US1INPT0024","VALPARAISO 5.5 S, IN US","41.398869","-87.031058","224.0","2008-10",,,,,,,"17",",N","7",",N",,,"0",",N",,,,,,,,,,,,,,,"0.0",",,N,31,+","31.5",",,N,16,",,,,,,,,,,,,,,,,,,,,,,,,,,,,,,,,,,,,,,,,,,,,,,,,,,,,,,,,,,,,,,,,,,,,,,,,,,,,,,,,,,,,,"102.1",",,,N",,,"0",",,,N",,,,,,,,,,,,,,,,,,
"US1INPT0025","VALPARAISO 5.1 WSW, IN US","41.455978","-87.145386","227.1","2008-10",,,,,,,"11","4,N","6","4,N",,,"0","4,N",,,,,,,,,,,,,,,"0.0","4,,N,31,+","31.2","4,,N,08,",,,,,,,,,,,,,,,,,,,,,,,,,,,,,,,,,,,,,,,,,,,,,,,,,,,,,,,,,,,,,,,,,,,,,,,,,,,,,,,,,,,,,"93.7","4,,,N",,,"0","4,,,N",,,,,,,,,,,,,,,,,,
"US1INHN0013","CUMBERLAND 0.7 E, IN US","39.783605","-85.938932","262.1","2008-10",,,,,,,"5",",N","4",",N",,,"0",",N",,,,,,,,,,,,,,,"0.0",",,N,31,+","16.8",",,N,08,",,,,,,,,,,,,,,,,,,,,,,,,,,,,,,,,,,,,,,,,,,,,,,,,,,,,,,,,,,,,,,,,,,,,,,,,,,,,,,,,,,,,,"47.3",",,,N",,,"0",",,,N",,,,,,,,,,,,,,,,,,
"US1INPT0020","VALPARAISO 2.4 SW, IN US","41.455458","-87.086353","217.9","2008-10",,,,,,,"14",",N","7",",N",,,"0",",N",,,,,,,,,,,,,,,"0.0",",T,N,28,","29.7",",,N,08,",,,,,,,,,,,,,,,,,,,,,,,,,,,,,,,,,,,,,,,,,,,,,,,,,,,,,,,,,,,,,,,,,,,,,,,,,,,,,,,,,,,,,"104.3",",,,N",,,"0",",T,,N",,,,,,,,,,,,,,,,,,
"US1INHW0010","KOKOMO 6.8 W, IN US","40.489282","-86.261137","243.8","2008-10",,,,,,,"4","3,N","3","3,N",,,"0","3,N",,,,,,,,,,,,,,,"0.0","3,,N,31,+","20.8","3,,N,16,",,,,,,,,,,,,,,,,,,,,,,,,,,,,,,,,,,,,,,,,,,,,,,,,,,,,,,,,,,,,,,,,,,,,,,,,,,,,,,,,,,,,,"39.8","3,,,N",,,"0","3,,,N",,,,,,,,,,,,,,,,,,
"US1INHW0013","KOKOMO 4.4 E, IN US","40.466761","-86.051037","253.0","2008-10",,,,,,,"5","1,N","4","1,N",,,"0","1,N",,,,,,,,,,,,,,,"0.0","1,,N,31,+","12.4","1,,N,16,+",,,,,,,,,,,,,,,,,,,,,,,,,,,,,,,,,,,,,,,,,,,,,,,,,,,,,,,,,,,,,,,,,,,,,,,,,,,,,,,,,,,,,"44.9","1,,,N",,,"0","1,,,N",,,,,,,,,,,,,,,,,,
"USW00063898","BEDFORD 5 WNW, IN US","38.8882","-86.5707","231.6","2008-10",,,"488.4","R","12.3",",R","5",",R","4",",R",,,,,"0",",R","3",",R","0",",R","12",",R","0",",R","-2.0",",R,30,",,,,,"27.8",",,R,07,","28.0",",R,11,+",,,"183.3","R",,,,,,,,,,,,,"174.3",",R",,,,,,,,,,,,,,,,,,,,,,,,,,,,,,,,,,,,,,,,,,,,,,,,,,,,,,,,,,,,,,,,,"66.0",",,,R",,,,,"13.1",",R","19.3",",,,R","6.9",",,,R",,,,,,,,,,,,
"US1INWH0011","BROOKSTON 7.4 WNW, IN US","40.634856","-86.998404","224.9","2008-10",,,,,,,"6",",N","4",",N",,,"0",",N",,,,,,,,,,,,,,,"0.0",",,N,31,+","18.0",",,N,08,",,,,,,,,,,,,,,,,,,,,,,,,,,,,,,,,,,,,,,,,,,,,,,,,,,,,,,,,,,,,,,,,,,,,,,,,,,,,,,,,,,,,,"38.8",",,,N",,,"0",",,,N",,,,,,,,,,,,,,,,,,
"USC00126872","PETERSBURG 61 BRIDGE, IN US","38.465","-87.2657","143.9","2008-10",,,,,"10.0","1,0","5",",0","4",",0","0","1,0","0",",0","0","1,0","4","1,0","0",",0","13",",0","0",",0","-2.8","1,0,29,","0","1,,0,31,+","0.0",",,0,31,+","18.5",",,0,08,","30.0",",0,13,",,,"197.5","0",,,,,,,,,,,,,"180.6",",0",,,,,,,,,,,,,,,,,,,,,,,,,,,,,,,,,,,,,,,,,,,,,,,,,,,,,,,,,,,,,,,,,"41.5",",,,0",,,"0",",,,0","12.6","1,0","20.3",",,,0","4.9","1,,,0",,,,,,,,,,,,
"US1INSN0005","HAMILTON 1.7 E, IN US","41.532404","-84.885299","277.1","2008-10",,,,,,,"10","5,N","3","5,N",,,"0","4,N",,,,,,,,,,,,,,,"0.0","4,,N,31,+","5.3","5,,N,16,",,,,,,,,,,,,,,,,,,,,,,,,,,,,,,,,,,,,,,,,,,,,,,,,,,,,,,,,,,,,,,,,,,,,,,,,,,,,,,,,,,,,,"20.6","5,,,N",,,"0","4,,,N",,,,,,,,,,,,,,,,,,
"USC00125541","MEDORA, IN US","38.7913","-86.2096","159.7","2008-10",,,,,,,"5",",0","3",",0","0",",0","0",",0",,,,,,,,,,,,,"0",",,0,31,+","0.0",",,0,31,+","22.9",",,0,08,",,,,,,,,,,,,,,,,,,,,,,,,,,,,,,,,,,,,,,,,,,,,,,,,,,,,,,,,,,,,,,,,,,,,,,,,,,,,,,,,,,,,,"57.9",",,,0",,,"0",",,,0",,,,,,,,,,,,,,,,,,
"US1INSN0007","ANGOLA 8.7 ESE, IN US","41.607934","-84.837635","301.1","2008-10",,,,,,,"11","5,N","3","5,N",,,"0","5,N",,,,,,,,,,,,,,,"0.0","5,T,N,27,","8.6","5,,N,16,",,,,,,,,,,,,,,,,,,,,,,,,,,,,,,,,,,,,,,,,,,,,,,,,,,,,,,,,,,,,,,,,,,,,,,,,,,,,,,,,,,,,,"43.8",",a,,N",,,"0","5,T,,N",,,,,,,,,,,,,,,,,,
"USC00120096","ALEXANDRIA, IN US","40.1968","-85.6702","265.5","2008-10",,,,,,,"3",",0","3",",0","0",",0","0",",0",,,,,,,,,,,,,"0",",,0,31,+","0.0",",,0,31,+","25.1",",,0,25,",,,,,,,,,,,,,,,,,,,,,,,,,,,,,,,,,,,,,,,,,,,,,,,,,,,,,,,,,,,,,,,,,,,,,,,,,,,,,,,,,,,,,"55.1",",,,0",,,"0",",,,0",,,,,,,,,,,,,,,,,,
"US1INSN0009","ANGOLA 4.1 N, IN US","41.701001","-84.986686","328.0","2008-10",,,,,,,"9","4,N","5","4,N",,,"0","4,N",,,,,,,,,,,,,,,"0.0","4,,N,31,+","20.1","4,,N,25,",,,,,,,,,,,,,,,,,,,,,,,,,,,,,,,,,,,,,,,,,,,,,,,,,,,,,,,,,,,,,,,,,,,,,,,,,,,,,,,,,,,,,"51.5",",a,,N",,,"0","4,,,N",,,,,,,,,,,,,,,,,,
"USC00121187","BUTLER 1 SE, IN US","41.4083","-84.8536","259.1","2008-10",,,,,,,"8",",0","4",",0","0",",0","0",",0",,,,,,,,,,,,,"0",",,0,31,+","0.0",",,0,31,+","21.6",",,0,25,",,,,,,,,,,,,,,,,,,,,,,,,,,,,,,,,,,,,,,,,,,,,,,,,,,,,,,,,,,,,,,,,,,,,,,,,,,,,,,,,,,,,,"46.0",",,,0",,,"0",",,,0",,,,,,,,,,,,,,,,,,
"US1INWH0007","MONTICELLO 0.7 SSE, IN US","40.73725","-86.760475","209.1","2008-10",,,,,,,"11",",N","4",",N",,,"0",",N",,,,,,,,,,,,,,,"0.0",",,N,31,+","18.8",",,N,16,",,,,,,,,,,,,,,,,,,,,,,,,,,,,,,,,,,,,,,,,,,,,,,,,,,,,,,,,,,,,,,,,,,,,,,,,,,,,,,,,,,,,,"51.9",",,,N",,,"0",",,,N",,,,,,,,,,,,,,,,,,
"US1INPT0008","VALPARAISO 0.6 SE, IN US","41.470792","-87.043314","251.2","2008-10",,,,,,,"16",",N","8",",N",,,"0",",N",,,,,,,,,,,,,,,"0.0",",T,N,28,","39.9",",,N,08,",,,,,,,,,,,,,,,,,,,,,,,,,,,,,,,,,,,,,,,,,,,,,,,,,,,,,,,,,,,,,,,,,,,,,,,,,,,,,,,,,,,,,"112.0",",,,N",,,"0",",T,,N",,,,,,,,,,,,,,,,,,
"USC00127724","SAINT MEINRAD, IN US","38.1641","-86.8094","155.4","2008-10",,,"666.8","0","23.6",",0","5",",0","2",",0","0",",0","0",",0","0",",0","3",",0","0",",0","15",",0","0",",0","-1.1",",0,29,","0",",,0,31,+","0.0",",,0,31,+","36.3",",,0,08,","29.4",",0,11,",,,"135.9","0",,,,,,,,,,,,,"135.6",",0",,,,,,,,,,,,,,,,,,,,,,,,,,,,,,,,,,,,,,,,,,,,,,,,,,,,,,,,,,,,,,,,,"65.6",",,,0",,,"0",",,,0","14.7",",0","21.8",",,,0","7.6",",,,0",,,,,,,,,,,,
"USW00053866","SHELBYVILLE MUNICIPAL AIRPORT, IN US","39.58545","-85.79982","244.4","2008-10","3.4",",W","472.6","W","11.9",",W","7",",W","3",",W",,,,,"0",",W","5",",W","0",",W","12",",W","0",",W","-4.3",",W,30,",,,,,"23.1",",,W,24,","30.0",",W,12,",,,"205.5","W",,,,,,,,,,,,,"191.6",",W",,,,,,,,,,,,,,,,,,,,,,,,,,,,,,,,,,,,,,,,,,,,,,,,,,,,,,,,,,,,,,,,,"38.8",",,,W",,,,,"12.5",",W","19.5",",,,W","5.6",",,,W",,,"310",",W","310",",W",,,"15.7",",W","19.7",",W"
"US1INHN0011","MCCORDSVILLE 2.6 NE, IN US","39.937","-85.9","259.1","2008-10",,,,,,,"6",",N","4",",N",,,"0",",N",,,,,,,,,,,,,,,"0.0",",,N,31,+","14.7",",,N,25,",,,,,,,,,,,,,,,,,,,,,,,,,,,,,,,,,,,,,,,,,,,,,,,,,,,,,,,,,,,,,,,,,,,,,,,,,,,,,,,,,,,,,"43.0",",,,N",,,"0",",,,N",,,,,,,,,,,,,,,,,,
"US1INHN0012","GREENFIELD 0.4 SW, IN US","39.7879","-85.7752","274.9","2008-10",,,,,,,"6","3,N","4","3,N",,,"0","3,N",,,,,,,,,,,,,,,"0.0","3,,N,31,+","19.3","3,,N,25,",,,,,,,,,,,,,,,,,,,,,,,,,,,,,,,,,,,,,,,,,,,,,,,,,,,,,,,,,,,,,,,,,,,,,,,,,,,,,,,,,,,,,"54.1","3,,,N",,,"0","3,,,N",,,,,,,,,,,,,,,,,,
"US1INSN0002","HUDSON 4.1 NNW, IN US","41.591868","-85.101163","321.9","2008-10",,,,,,,"11","2,N","4","2,N",,,"0","2,N",,,,,,,,,,,,,,,"0.0","2,,N,31,+","23.1","2,,N,25,",,,,,,,,,,,,,,,,,,,,,,,,,,,,,,,,,,,,,,,,,,,,,,,,,,,,,,,,,,,,,,,,,,,,,,,,,,,,,,,,,,,,,"63.5",",a,,N",,,"0","2,,,N",,,,,,,,,,,,,,,,,,
"US1INSN0003","HUDSON 4.6 N, IN US","41.5997","-85.089524","301.1","2008-10",,,,,,,"12",",N","5",",N",,,"0",",N",,,,,,,,,,,,,,,"0.0",",T,N,28,","22.9",",,N,25,",,,,,,,,,,,,,,,,,,,,,,,,,,,,,,,,,,,,,,,,,,,,,,,,,,,,,,,,,,,,,,,,,,,,,,,,,,,,,,,,,,,,,"65.3",",,,N",,,"0",",T,,N",,,,,,,,,,,,,,,,,,
"US1INPT0005","VALPARAISO 1.3 NNE, IN US","41.495016","-87.04084","253.0","2008-10",,,,,,,"9","4,N","6","4,N",,,"0","4,N",,,,,,,,,,,,,,,"0.0","4,,N,31,+","33.8","4,,N,08,",,,,,,,,,,,,,,,,,,,,,,,,,,,,,,,,,,,,,,,,,,,,,,,,,,,,,,,,,,,,,,,,,,,,,,,,,,,,,,,,,,,,,"95.0","4,,,N",,,"0","4,,,N",,,,,,,,,,,,,,,,,,
"USC00129905","YOUNG AMERICA, IN US","40.5615","-86.3424","235.6","2008-10",,,,,"6.3",",0","5",",0","4",",0","0",",0","0",",0","0",",0","6",",0","0",",0","10",",0","0",",0","-3.3",",0,29,","0",",,0,31,+","0.0",",,0,31,+","23.6",",,0,15,","29.4",",0,12,",,,,,,,,,,,,,,,,,"222.0",",0",,,,,,,,,,,,,,,,,,,,,,,,,,,,,,,,,,,,,,,,,,,,,,,,,,,,,,,,,,,,,,,,,"61.5",",,,0",,,"0",",,,0","11.4",",0","18.1",",,,0","4.7",",,,0",,,,,,,,,,,,
"US1INPT0013","VALPARAISO 6.2 WSW, IN US","41.44","-87.160556","239.9","2008-10",,,,,,,"8","5,N","6","5,N",,,"0","5,N",,,,,,,,,,,,,,,"0.0","5,,N,31,+","35.8","5,,N,08,",,,,,,,,,,,,,,,,,,,,,,,,,,,,,,,,,,,,,,,,,,,,,,,,,,,,,,,,,,,,,,,,,,,,,,,,,,,,,,,,,,,,,"103.3",",a,,N",,,"0","5,,,N",,,,,,,,,,,,,,,,,,
"US1INHN0004","MCCORDSVILLE 1.3 N, IN US","39.92668","-85.92738","252.1","2008-10",,,,,,,"5",",N","4",",N",,,"0",",N",,,,,,,,,,,,,,,"0.0",",,N,31,+","13.7",",,N,25,",,,,,,,,,,,,,,,,,,,,,,,,,,,,,,,,,,,,,,,,,,,,,,,,,,,,,,,,,,,,,,,,,,,,,,,,,,,,,,,,,,,,,"44.8",",,,N",,,"0",",,,N",,,,,,,,,,,,,,,,,,
"US1INPT0014","CHESTERTON 3.0 ESE, IN US","41.578833","-87.008","216.1","2008-10",,,,,,,"16",",N","8",",N",,,"0",",N",,,,,,,,,,,,,,,"0.0",",,N,31,+","48.3",",,N,08,",,,,,,,,,,,,,,,,,,,,,,,,,,,,,,,,,,,,,,,,,,,,,,,,,,,,,,,,,,,,,,,,,,,,,,,,,,,,,,,,,,,,,"108.5",",,,N",,,"0",",,,N",,,,,,,,,,,,,,,,,,
"US1INHN0002","GREENFIELD 2.4 W, IN US","39.791","-85.816","266.1","2008-10",,,,,,,"6",",N","4",",N",,,"0",",N",,,,,,,,,,,,,,,"0.0",",,N,31,+","15.2",",,N,08,",,,,,,,,,,,,,,,,,,,,,,,,,,,,,,,,,,,,,,,,,,,,,,,,,,,,,,,,,,,,,,,,,,,,,,,,,,,,,,,,,,,,,"49.0",",,,N",,,"0",",,,N",,,,,,,,,,,,,,,,,,
"US1INHN0003","NEW PALESTINE 1.4 S, IN US","39.70061","-85.895044","246.0","2008-10",,,,,,,"5",",N","4",",N",,,"0",",N",,,,,,,,,,,,,,,"0.0",",,N,31,+","16.0",",,N,08,",,,,,,,,,,,,,,,,,,,,,,,,,,,,,,,,,,,,,,,,,,,,,,,,,,,,,,,,,,,,,,,,,,,,,,,,,,,,,,,,,,,,,"54.3",",,,N",,,"0",",,,N",,,,,,,,,,,,,,,,,,
"US1INPT0012","VALPARAISO 4.3 SW, IN US","41.434538","-87.112379","235.9","2008-10",,,,,,,"13",",N","6",",N",,,"0",",N",,,,,,,,,,,,,,,"0.0",",,N,31,+","36.3",",,N,08,",,,,,,,,,,,,,,,,,,,,,,,,,,,,,,,,,,,,,,,,,,,,,,,,,,,,,,,,,,,,,,,,,,,,,,,,,,,,,,,,,,,,,"105.9",",,,N",,,"0",",,,N",,,,,,,,,,,,,,,,,,
"US1INCY0003","CLAY CITY 0.1 ESE, IN US","39.276373","-87.110448","184.1","2008-10",,,,,,,"7",",N","4",",N","0",",N","0",",N",,,,,,,,,,,,,"0",",,N,31,+","0.0",",,N,31,+","14.5",",,N,24,",,,,,,,,,,,,,,,,,,,,,,,,,,,,,,,,,,,,,,,,,,,,,,,,,,,,,,,,,,,,,,,,,,,,,,,,,,,,,,,,,,,,,"49.4",",,,N",,,"0",",,,N",,,,,,,,,,,,,,,,,,
"US1INCY0004","JASONVILLE 4.0 ENE, IN US","39.17632","-87.144557","167.6","2008-10",,,,,,,,,,,,,,,,,,,,,,,,,,,,,,,,,,,,,,,,,,,,,,,,,,,,,,,,,,,,,,,,,,,,,,,,,,,,,,,,,,,,,,,,,,,,,,,,,,,,,,,,,,,,,,,,,,,,,"44.8","1,a,,N",,,,,,,,,,,,,,,,,,,,,,
"US1INHW0002","RUSSIAVILLE 0.3 SSW, IN US","40.414758","-86.27263","259.1","2008-10",,,,,,,,,,,,,,,,,,,,,,,,,,,,,,,,,,,,,,,,,,,,,,,,,,,,,,,,,,,,,,,,,,,,,,,,,,,,,,,,,,,,,,,,,,,,,,,,,,,,,,,,,,,,,,,,,,,,,"54.4","4,a,,N",,,,,,,,,,,,,,,,,,,,,,
"USR0000IHAR","HARDIN RIDGE INDIANA, IN US","39.0","-86.4228","228.6","2008-10",,,"580.8","U","16.0",",U",,,,,,,,,"0",",U","2",",U","0",",U","13",",U","0",",U","-1.7",",U,28,",,,,,,,"29.4",",U,12,+",,,"164.8","U",,,,,,,,,,,,,"159.2",",U",,,,,,,,,,,,,,,,,,,,,,,,,,,,,,,,,,,,,,,,,,,,,,,,,,,,,,,,,,,,,,,,,,,,,,,"13.7",",U","20.3",",,,U","7.1",",,,U",,,,,,,,,,,,
"US1INHW0005","KOKOMO 4.3 SW, IN US","40.438315","-86.197831","255.1","2008-10",,,,,,,"7","1,N","4","1,N",,,"0","1,N",,,,,,,,,,,,,,,"0.0","1,,N,31,+","14.7","1,,N,25,",,,,,,,,,,,,,,,,,,,,,,,,,,,,,,,,,,,,,,,,,,,,,,,,,,,,,,,,,,,,,,,,,,,,,,,,,,,,,,,,,,,,,"46.8","1,,,N",,,"0","1,,,N",,,,,,,,,,,,,,,,,,
"US1INHW0007","KOKOMO 4.0 ENE, IN US","40.497884","-86.06289","253.9","2008-10",,,,,,,"8","1,N","4","1,N",,,"0","1,N",,,,,,,,,,,,,,,"0.0","1,,N,31,+","15.0","1,,N,16,",,,,,,,,,,,,,,,,,,,,,,,,,,,,,,,,,,,,,,,,,,,,,,,,,,,,,,,,,,,,,,,,,,,,,,,,,,,,,,,,,,,,,"48.2","1,,,N",,,"0","1,,,N",,,,,,,,,,,,,,,,,,
"USC00122041","DANVILLE 3 SW, IN US","39.7344","-86.5361","291.4","2008-10",,,,,,,"5",",0","3",",0","0",",0","0",",0",,,,,,,,,,,,,"0",",,0,31,+","0.0",",,0,31,+","17.8",",,0,25,",,,,,,,,,,,,,,,,,,,,,,,,,,,,,,,,,,,,,,,,,,,,,,,,,,,,,,,,,,,,,,,,,,,,,,,,,,,,,,,,,,,,,"39.5",",,,0",,,"0",",,,0",,,,,,,,,,,,,,,,,,
"US1INDB0001","HUNTINGBURG 0.4 SSW, IN US","38.29294","-86.9611","153.3","2008-10",,,,,,,"5",",N","3",",N",,,"0",",N",,,,,,,,,,,,,,,"0.0",",,N,31,+","44.5",",,N,08,",,,,,,,,,,,,,,,,,,,,,,,,,,,,,,,,,,,,,,,,,,,,,,,,,,,,,,,,,,,,,,,,,,,,,,,,,,,,,,,,,,,,,"67.9",",,,N",,,"0",",,,N",,,,,,,,,,,,,,,,,,
"USC00123497","GRANDVIEW, IN US","37.9541","-86.9858","124.1","2008-10",,,"702.4","0","15.0",",0","6",",0","3",",0","0",",0","0",",0","0",",0","4",",0","0",",0","17",",0","0",",0","-2.8",",0,29,","0",",,0,31,+","0.0",",,0,31,+","44.5",",,0,08,","30.6",",0,16,+",,,"159.8","0",,,,,,,,,,,,,"156.0",",0",,,,,,,,,,,,,,,,,,,,,,,,,,,,,,,,,,,,,,,,,,,,,,,,,,,,,,,,,,,,,,,,,"76.8",",,,0",,,"0",",,,0","13.8",",0","21.8",",,,0","5.8",",,,0",,,,,,,,,,,,
"USC00126400","NORTHERN INDIANA WEATHER FORECAST OFFICE, IN US","41.3588","-85.6997","289.9","2008-10",,,"400.8","0","5.6",",0","10",",0","5",",0","0",",0","0",",0","0",",0","6",",0","0",",0","8",",0","0",",0","-2.2",",0,30,","0",",T,0,27,","0.0",",T,0,28,+","23.1",",,0,24,","29.4",",0,12,",,,"244.7","0",,,,,,,,,,,,,"227.1",",0",,,,,,,,,,,,,,,,,,,,,,,,,,,,,,,,,,,,,,,,,,,,,,,,,,,,,,,,,,,,,,,,,"57.7",",,,0",,,"0",",T,,0","11.2",",0","16.9",",,,0","5.5",",,,0",,,,,,,,,,,,
"USC00126401","NORTH JUDSON 3 S, IN US","41.1734","-86.7571","213.4","2008-10",,,,,,,"9",",0","5",",0","0",",0","0",",0",,,,,,,,,,,,,"0",",T,0,28,","0.0",",T,0,28,","31.8",",,0,08,",,,,,,,,,,,,,,,,,,,,,,,,,,,,,,,,,,,,,,,,,,,,,,,,,,,,,,,,,,,,,,,,,,,,,,,,,,,,,,,,,,,,,"86.3",",,,0",,,"0",",T,,0",,,,,,,,,,,,,,,,,,
"US1INDB0006","JASPER 5.7 ESE, IN US","38.364437","-86.845345","170.1","2008-10",,,,,,,"7",",N","2",",N",,,"0",",N",,,,,,,,,,,,,,,"0.0",",,N,31,+","27.7",",,N,08,",,,,,,,,,,,,,,,,,,,,,,,,,,,,,,,,,,,,,,,,,,,,,,,,,,,,,,,,,,,,,,,,,,,,,,,,,,,,,,,,,,,,,"56.2",",,,N",,,"0",",,,N",,,,,,,,,,,,,,,,,,
"US1INDB0004","HUNTINGBURG 6.2 WSW, IN US","38.2797","-87.0709","162.2","2008-10",,,,,,,"5",",N","2",",N",,,"0",",N",,,,,,,,,,,,,,,"0.0",",,N,31,+","31.2",",,N,08,",,,,,,,,,,,,,,,,,,,,,,,,,,,,,,,,,,,,,,,,,,,,,,,,,,,,,,,,,,,,,,,,,,,,,,,,,,,,,,,,,,,,,"48.0",",,,N",,,"0",",,,N",,,,,,,,,,,,,,,,,,
"US1INMR0013","SPEEDWAY 6.2 SSW, IN US","39.706689","-86.28095","243.2","2008-10",,,,,,,"6","1,N","4","1,N",,,"0","1,N",,,,,,,,,,,,,,,"0.0","1,T,N,28,+","21.3","1,,N,08,",,,,,,,,,,,,,,,,,,,,,,,,,,,,,,,,,,,,,,,,,,,,,,,,,,,,,,,,,,,,,,,,,,,,,,,,,,,,,,,,,,,,,"51.0","1,,,N",,,"0","1,T,,N",,,,,,,,,,,,,,,,,,
"US1INEL0009","ELKHART 3.1 SSE, IN US","41.622756","-86.012699","238.0","2008-10",,,,,,,"13",",N","7",",N",,,"0",",N",,,,,,,,,,,,,,,"0.0",",,N,31,+","19.6",",,N,25,",,,,,,,,,,,,,,,,,,,,,,,,,,,,,,,,,,,,,,,,,,,,,,,,,,,,,,,,,,,,,,,,,,,,,,,,,,,,,,,,,,,,,"81.4",",,,N",,,"0",",,,N",,,,,,,,,,,,,,,,,,
"US1INPT0003","VALPARAISO 2.0 WSW, IN US","41.46741","-87.08746","220.1","2008-10",,,,,,,"18",",N","7",",N",,,"0",",N",,,,,,,,,,,,,,,"0.0",",T,N,28,","38.6",",,N,08,",,,,,,,,,,,,,,,,,,,,,,,,,,,,,,,,,,,,,,,,,,,,,,,,,,,,,,,,,,,,,,,,,,,,,,,,,,,,,,,,,,,,,"116.2",",,,N",,,"0",",T,,N",,,,,,,,,,,,,,,,,,
"US1INGR0002","K9NQW MARION 1.8 NW, IN US","40.566198","-85.692177","260.9","2008-10",,,,,,,,,,,,,,,,,,,,,,,,,,,,,,,,,,,,,,,,,,,,,,,,,,,,,,,,,,,,,,,,,,,,,,,,,,,,,,,,,,,,,,,,,,,,,,,,,,,,,,,,,,,,,,,,,,,,,"45.3","1,a,,N",,,,,,,,,,,,,,,,,,,,,,
"US1INPT0001","VALPARAISO 3.9 NNW, IN US","41.531024","-87.071109","246.9","2008-10",,,,,,,"13",",N","7",",N","0",",N","0",",N",,,,,,,,,,,,,"0",",,N,31,+","0.0",",,N,31,+","46.5",",,N,08,",,,,,,,,,,,,,,,,,,,,,,,,,,,,,,,,,,,,,,,,,,,,,,,,,,,,,,,,,,,,,,,,,,,,,,,,,,,,,,,,,,,,,"118.4",",,,N",,,"0",",,,N",,,,,,,,,,,,,,,,,,
"US1INTN0007","ATLANTA 4.1 ENE, IN US","40.232863","-85.952635","262.1","2008-10",,,,,,,"8",",N","4",",N",,,"0",",N",,,,,,,,,,,,,,,"0.0",",,N,31,+","21.3",",,N,25,",,,,,,,,,,,,,,,,,,,,,,,,,,,,,,,,,,,,,,,,,,,,,,,,,,,,,,,,,,,,,,,,,,,,,,,,,,,,,,,,,,,,,"47.6",",,,N",,,"0",",,,N",,,,,,,,,,,,,,,,,,
"US1INMR0007","BEECH GROVE 1.6 W, IN US","39.710626","-86.116886","235.9","2008-10",,,,,,,"6",",N","4",",N",,,"0",",N",,,,,,,,,,,,,,,"0.0",",,N,31,+","13.7",",,N,25,",,,,,,,,,,,,,,,,,,,,,,,,,,,,,,,,,,,,,,,,,,,,,,,,,,,,,,,,,,,,,,,,,,,,,,,,,,,,,,,,,,,,,"47.0",",,,N",,,"0",",,,N",,,,,,,,,,,,,,,,,,
"US1INEL0001","WAKARUSA 0.3 WSW, IN US","41.53322","-86.019","259.1","2008-10",,,,,,,"14",",N","7",",N",,,"0",",N",,,,,,,,,,,,,,,"0.0",",,N,31,+","21.3",",,N,25,",,,,,,,,,,,,,,,,,,,,,,,,,,,,,,,,,,,,,,,,,,,,,,,,,,,,,,,,,,,,,,,,,,,,,,,,,,,,,,,,,,,,,"81.3",",,,N",,,"0",",,,N",,,,,,,,,,,,,,,,,,
"US1INEL0003","MIDDLEBURY 2.6 WSW, IN US","41.6624","-85.760218","278.0","2008-10",,,,,,,"15",",N","7",",N",,,"0",",N",,,,,,,,,,,,,,,"0.0",",T,N,29,","22.6",",,N,25,",,,,,,,,,,,,,,,,,,,,,,,,,,,,,,,,,,,,,,,,,,,,,,,,,,,,,,,,,,,,,,,,,,,,,,,,,,,,,,,,,,,,,"74.1",",,,N",,,"0",",T,,N",,,,,,,,,,,,,,,,,,
"US1INEL0007","MILLERSBURG 0.5 SW, IN US","41.520929","-85.700842","271.0","2008-10",,,,,,,"11",",N","6",",N","0",",N","0",",N",,,,,,,,,,,,,"0",",,N,31,+","0.0",",T,N,28,+","22.9",",,N,25,+",,,,,,,,,,,,,,,,,,,,,,,,,,,,,,,,,,,,,,,,,,,,,,,,,,,,,,,,,,,,,,,,,,,,,,,,,,,,,,,,,,,,,"69.6",",,,N",,,"0",",T,,N",,,,,,,,,,,,,,,,,,
"US1INEL0008","WAKARUSA 2.4 NNE, IN US","41.56551","-85.9933","256.0","2008-10",,,,,,,"15",",N","8",",N",,,"0",",N",,,,,,,,,,,,,,,"0.0",",,N,31,+","21.6",",,N,16,",,,,,,,,,,,,,,,,,,,,,,,,,,,,,,,,,,,,,,,,,,,,,,,,,,,,,,,,,,,,,,,,,,,,,,,,,,,,,,,,,,,,,"88.8",",,,N",,,"0",",,,N",,,,,,,,,,,,,,,,,,
"USC00125562","MEROM 2 ESE, IN US","39.0446","-87.529","146.3","2008-10",,,,,,,"4","3,0","3","3,0","0",",0","0",",0",,,,,,,,,,,,,"0",",,0,31,+","0.0",",,0,31,+","15.2","3,,0,08,",,,,,,,,,,,,,,,,,,,,,,,,,,,,,,,,,,,,,,,,,,,,,,,,,,,,,,,,,,,,,,,,,,,,,,,,,,,,,,,,,,,,,"34.3","3,,,0",,,"0",",,,0",,,,,,,,,,,,,,,,,,
"USC00124356","JAMESTOWN 2 E, IN US","39.9237","-86.5984","293.2","2008-10",,,,,"8.1","3,0",,,,,"0",",0","0",",0","0","3,0","5","3,0","0",",0","11",",0","0",",0","-2.8","3,0,30,+","0",",,0,31,+","0.0",",,0,31,+",,,"28.3",",0,14,+",,,,,,,,,,,,,,,,,"201.1",",0",,,,,,,,,,,,,,,,,,,,,,,,,,,,,,,,,,,,,,,,,,,,,,,,,,,,,,,,,,,,,,,,,,,,,"0",",,,0","11.8","3,0","19.0",",,,0","4.6","3,,,0",,,,,,,,,,,,
"US1INCK0005","CLARKSVILLE 1.3 S, IN US","38.298261","-85.762826","139.0","2008-10",,,,,,,"7","1,N","3","1,N",,,"0","1,N",,,,,,,,,,,,,,,"0.0","1,,N,31,+","29.7","1,,N,08,",,,,,,,,,,,,,,,,,,,,,,,,,,,,,,,,,,,,,,,,,,,,,,,,,,,,,,,,,,,,,,,,,,,,,,,,,,,,,,,,,,,,,"67.3","1,,,N",,,"0","1,,,N",,,,,,,,,,,,,,,,,,
"US1INCK0006","CHARLESTOWN 2.6 N, IN US","38.490847","-85.667716","191.1","2008-10",,,,,,,"6","1,N","4","1,N",,,"0","1,N",,,,,,,,,,,,,,,"0.0","1,,N,31,+","23.1","1,,N,08,",,,,,,,,,,,,,,,,,,,,,,,,,,,,,,,,,,,,,,,,,,,,,,,,,,,,,,,,,,,,,,,,,,,,,,,,,,,,,,,,,,,,,"61.2","1,,,N",,,"0","1,,,N",,,,,,,,,,,,,,,,,,
"USC00123146","FRENCH LICK 3 N, IN US","38.5947","-86.6129","223.4","2008-10",,,,,,,"6",",0","4",",0","0",",0","0",",0",,,,,"0",",0","13",",0","0",",0",,,"0",",,0,31,+","0.0",",,0,31,+","20.8",",,0,08,","28.9",",0,12,+",,,,,,,,,,,,,,,,,,,,,,,,,,,,,,,,,,,,,,,,,,,,,,,,,,,,,,,,,,,,,,,,,,,,,,,,,,,,,,,,,,,"51.0",",,,0",,,"0",",,,0",,,"20.5",",,,0",,,,,,,,,,,,,,
"US1INCK0009","CHARLESTOWN 1.5 ENE, IN US","38.462177","-85.642688","178.0","2008-10",,,,,,,"6","3,N","5","3,N",,,"0","3,N",,,,,,,,,,,,,,,"0.0","3,,N,31,+","30.5","3,,N,25,",,,,,,,,,,,,,,,,,,,,,,,,,,,,,,,,,,,,,,,,,,,,,,,,,,,,,,,,,,,,,,,,,,,,,,,,,,,,,,,,,,,,,"59.0","3,,,N",,,"0","3,,,N",,,,,,,,,,,,,,,,,,
"US1INMR0002","LAWRENCE 2.0 ENE, IN US","39.880253","-85.953487","259.1","2008-10",,,,,,,"4","1,N","3","1,N",,,"0","1,N",,,,,,,,,,,,,,,"0.0","1,,N,31,+","23.6","1,,N,25,",,,,,,,,,,,,,,,,,,,,,,,,,,,,,,,,,,,,,,,,,,,,,,,,,,,,,,,,,,,,,,,,,,,,,,,,,,,,,,,,,,,,,"41.4","1,,,N",,,"0","1,,,N",,,,,,,,,,,,,,,,,,
"USW00053842","INDIANAPOLIS EAGLE CREEK AIRPORT, IN US","39.82483","-86.29583","247.4","2008-10","2.6",",W","551.1","W","9.5",",W","6",",W","3",",W",,,,,"0",",W","2",",W","0",",W","12",",W","0",",W","-2.1",",W,30,",,,,,"21.3",",,W,24,","28.9",",W,12,",,,"186.3","W",,,,,,,,,,,,,"179.1",",W",,,,,,,,,,,,,,,,,,,,,,,,,,,,,,,,,,,,,,,,,,,,,,,,,,,,,,,,,,,,,,,,,"41.2",",,,W",,,,,"12.9",",W","18.9",",,,W","6.8",",,,W",,,"300",",W","300",",W",,,"16.1",",W","21.5",",W"
"US1INCK0010","SELLERSBURG 1.4 SW, IN US","38.377253","-85.777374","149.4","2008-10",,,,,,,,,,,,,,,,,,,,,,,,,,,,,,,,,,,,,,,,,,,,,,,,,,,,,,,,,,,,,,,,,,,,,,,,,,,,,,,,,,,,,,,,,,,,,,,,,,,,,,,,,,,,,,,,,,,,,"70.6","3,a,,N",,,,,,,,,,,,,,,,,,,,,,
"USC00124642","KNIGHTSTOWN 2 ENE, IN US","39.8075","-85.4877","303.9","2008-10",,,,,,,"6",",0","4",",0","0",",0","0",",0",,,,,,,,,,,,,"0",",,0,31,+","0.0",",,0,31,+","20.1",",,0,25,",,,,,,,,,,,,,,,,,,,,,,,,,,,,,,,,,,,,,,,,,,,,,,,,,,,,,,,,,,,,,,,,,,,,,,,,,,,,,,,,,,,,,"50.1",",,,0",,,"0",",,,0",,,,,,,,,,,,,,,,,,
"US1INEL0030","GOSHEN 6.7 W, IN US","41.585325","-85.963973","249.3","2008-10",,,,,,,"16",",N","8",",N",,,"0",",N",,,,,,,,,,,,,,,"0.0",",,N,31,+","21.6",",,N,16,",,,,,,,,,,,,,,,,,,,,,,,,,,,,,,,,,,,,,,,,,,,,,,,,,,,,,,,,,,,,,,,,,,,,,,,,,,,,,,,,,,,,,"87.2",",,,N",,,"0",",,,N",,,,,,,,,,,,,,,,,,
"US1INEL0031","NAPPANEE 3.5 NW, IN US","41.475563","-86.040129","267.9","2008-10",,,,,,,,,,,,,,,,,,,,,,,,,,,,,,,,,,,,,,,,,,,,,,,,,,,,,,,,,,,,,,,,,,,,,,,,,,,,,,,,,,,,,,,,,,,,,,,,,,,,,,,,,,,,,,,,,,,,,"45.7","3,a,,N",,,,,,,,,,,,,,,,,,,,,,
"US1INEL0032","MILLERSBURG 2.6 S, IN US","41.488333","-85.70105","265.2","2008-10",,,,,,,"12","2,N","6","2,N",,,"0","2,N",,,,,,,,,,,,,,,"0.0","2,,N,31,+","22.1","2,,N,25,",,,,,,,,,,,,,,,,,,,,,,,,,,,,,,,,,,,,,,,,,,,,,,,,,,,,,,,,,,,,,,,,,,,,,,,,,,,,,,,,,,,,,"69.5","2,,,N",,,"0","2,,,N",,,,,,,,,,,,,,,,,,
"USC00121256","CANNELTON, IN US","37.8994","-86.7072","122.5","2008-10",,,,,,,"4",",0","4",",0","0",",0","0",",0",,,,,,,,,,,,,"0",",,0,31,+","0.0",",,0,31,+","54.4",",,0,08,",,,,,,,,,,,,,,,,,,,,,,,,,,,,,,,,,,,,,,,,,,,,,,,,,,,,,,,,,,,,,,,,,,,,,,,,,,,,,,,,,,,,,"92.1",",,,0",,,"0",",,,0",,,,,,,,,,,,,,,,,,
"US1INMR0031","INDIANAPOLIS 4.6 N, IN US","39.842297","-86.159141","232.0","2008-10",,,,,,,,,,,,,,,,,,,,,,,,,,,,,,,,,,,,,,,,,,,,,,,,,,,,,,,,,,,,,,,,,,,,,,,,,,,,,,,,,,,,,,,,,,,,,,,,,,,,,,,,,,,,,,,,,,,,,"44.5","2,a,,N",,,,,,,,,,,,,,,,,,,,,,
"USC00125613","MIDDLETOWN 2 W, IN US","40.063","-85.5777","286.5","2008-10",,,,,,,"6",",0","4",",0","0",",0","0",",0",,,,,,,,,,,,,"0",",,0,31,+","0.0",",,0,31,+","21.3",",,0,25,",,,,,,,,,,,,,,,,,,,,,,,,,,,,,,,,,,,,,,,,,,,,,,,,,,,,,,,,,,,,,,,,,,,,,,,,,,,,,,,,,,,,,"59.4",",,,0",,,"0",",,,0",,,,,,,,,,,,,,,,,,
"US1INMR0034","INDIANAPOLIS 4.5 ENE, IN US","39.793746","-86.065426","256.0","2008-10",,,,,,,"9",",N","4",",N",,,"0",",N",,,,,,,,,,,,,,,"0.0",",,N,31,+","18.0",",,N,08,",,,,,,,,,,,,,,,,,,,,,,,,,,,,,,,,,,,,,,,,,,,,,,,,,,,,,,,,,,,,,,,,,,,,,,,,,,,,,,,,,,,,,"50.2",",,,N",,,"0",",,,N",,,,,,,,,,,,,,,,,,
"USC00124527","KENTLAND, IN US","40.75917","-87.43528","211.8","2008-10",,,,,"4.7","5,0","5",",0","5",",0","0",",0","0",",0","0","5,0","6","5,0","0","5,0","9","5,0","0","5,0","-3.3","5,0,28,","0",",,0,31,+","0.0",",,0,31,+","17.3",",,0,15,","30.6","5,0,13,",,,,,"14.4","5,,,0,5,2",,,,,,,,,,,"181.9","5,0","16.1","5,,,0,3,2","17.2","5,,,0,5,2",,,,,,,,,"2.8","5,,,0,5,2",,,,,,,,,,,"3.3","5,,,0,3,2","4.4","5,,,0,5,2",,,,,,,,,"8.9","5,,,0,5,2",,,,,,,,,,,,,"10.9","5,,,0,3,2","12.1","5,,,0,5,2",,,,,,,,,,,"56.9",",,,0",,,"0",",,,0","11.5","5,0","19.1","5,,,0","4.0","5,,,0",,,,,,,,,,,,
"US1INMR0033","LAWRENCE 4.1 W, IN US","39.8783","-86.0631","255.1","2008-10",,,,,,,"8",",N","4",",N",,,"0",",N",,,,,,,,,,,,,,,"0.0",",,N,31,+","25.1",",,N,08,",,,,,,,,,,,,,,,,,,,,,,,,,,,,,,,,,,,,,,,,,,,,,,,,,,,,,,,,,,,,,,,,,,,,,,,,,,,,,,,,,,,,,"54.4",",,,N",,,"0",",,,N",,,,,,,,,,,,,,,,,,
"USC00126705","PAOLI, IN US","38.5555","-86.4858","170.7","2008-10",,,,,"3.0",",0","3",",0","2",",0","0",",0","0",",0","0",",0","7",",0","0",",0","12",",0","0",",0","-3.3",",0,30,+","0",",,0,31,+","0.0",",,0,31,+","28.4",",,0,24,","28.3",",0,12,+",,,"224.9","0",,,,,,,,,,,,,"205.5",",0",,,,,,,,,,,,,,,,,,,,,,,,,,,,,,,,,,,,,,,,,,,,,,,,,,,,,,,,,,,,,,,,,"56.4",",,,0",,,"0",",,,0","11.8",",0","19.8",",,,0","3.8",",,,0",,,,,,,,,,,,
"US1INMR0027","INDIANAPOLIS 3.2 E, IN US","39.770101","-86.08731","242.0","2008-10",,,,,,,,,,,,,,,,,,,,,,,,,,,,,,,,,,,,,,,,,,,,,,,,,,,,,,,,,,,,,,,,,,,,,,,,,,,,,,,,,,,,,,,,,,,,,,,,,,,,,,,,,,,,,,,,,,,,,"45.5",",a,,N",,,,,,,,,,,,,,,,,,,,,,
"US1INST0004","NORTH JUDSON 0.6 S, IN US","41.20818","-86.774682","218.8","2008-10",,,,,,,"12",",N","5",",N",,,"0",",N",,,,,,,,,,,,,,,"0.0",",,N,31,+","33.3",",,N,08,",,,,,,,,,,,,,,,,,,,,,,,,,,,,,,,,,,,,,,,,,,,,,,,,,,,,,,,,,,,,,,,,,,,,,,,,,,,,,,,,,,,,,"99.4",",,,N",,,"0",",,,N",,,,,,,,,,,,,,,,,,
"US1INBN0014","WHITESTOWN 0.7 SSW, IN US","39.986","-86.3518","287.1","2008-10",,,,,,,"6",",N","4",",N",,,"0",",N",,,,,,,,,,,,,,,"0.0",",,N,31,+","24.6",",,N,08,",,,,,,,,,,,,,,,,,,,,,,,,,,,,,,,,,,,,,,,,,,,,,,,,,,,,,,,,,,,,,,,,,,,,,,,,,,,,,,,,,,,,,"59.9",",,,N",,,"0",",,,N",,,,,,,,,,,,,,,,,,
"USW00014848","SOUTH BEND AIRPORT, IN US","41.70722","-86.31628","235.4","2008-10","3.6",",W","389.5","0","5.0",",0","14",",0","7",",0","1",",0","0",",0","0",",0","5",",0","0",",0","7",",0","0",",0","-2.8",",0,30,","25",",,0,28,","10.0",",,0,27,","26.4",",,0,24,","28.9",",0,12,",,,"264.2","0",,,,,,,,,,,,,"234.8",",0",,,,,,,,,,,,,,,,,,,,,,,,,,,,,,,,,,,,,,,,,,,,,,,,,,,,,,,,,,,,,,,,,"79.6",",,,0",,,"18",",,,0","10.9",",0","16.4",",,,0","5.4",",,,0",,,"280",",X","280",",X",,,"14.8",",X","19.7",",X"
"US1INBN0010","LEBANON 4.5 NNE, IN US","40.115207","-86.455075","284.1","2008-10",,,,,,,"9",",N","4",",N",,,"0",",N",,,,,,,,,,,,,,,"0.0",",T,N,28,","19.8",",,N,08,",,,,,,,,,,,,,,,,,,,,,,,,,,,,,,,,,,,,,,,,,,,,,,,,,,,,,,,,,,,,,,,,,,,,,,,,,,,,,,,,,,,,,"49.5",",,,N",,,"0",",T,,N",,,,,,,,,,,,,,,,,,
"US1INMR0029","BEECH GROVE 2.6 SE, IN US","39.6857","-86.05548","260.9","2008-10",,,,,,,"3","4,N","3","4,N",,,"0","4,N",,,,,,,,,,,,,,,"0.0","4,,N,31,+","18.3","4,,N,25,",,,,,,,,,,,,,,,,,,,,,,,,,,,,,,,,,,,,,,,,,,,,,,,,,,,,,,,,,,,,,,,,,,,,,,,,,,,,,,,,,,,,,"56.1",",a,,N",,,"0","4,,,N",,,,,,,,,,,,,,,,,,
"US1INST0002","KNOX 1.2 S, IN US","41.27415","-86.6193","220.1","2008-10",,,,,,,"13","2,N","6","2,N",,,"0","2,N",,,,,,,,,,,,,,,"0.0","2,T,N,28,","31.0","2,,N,08,",,,,,,,,,,,,,,,,,,,,,,,,,,,,,,,,,,,,,,,,,,,,,,,,,,,,,,,,,,,,,,,,,,,,,,,,,,,,,,,,,,,,,"83.1","2,,,N",,,"0","2,T,,N",,,,,,,,,,,,,,,,,,
"US1INMN0009","BLOOMINGTON 1.9 S, IN US","39.139361","-86.520984","238.0","2008-10",,,,,,,"8",",N","3",",N",,,"0",",N",,,,,,,,,,,,,,,"0.0",",,N,31,+","20.3",",,N,08,",,,,,,,,,,,,,,,,,,,,,,,,,,,,,,,,,,,,,,,,,,,,,,,,,,,,,,,,,,,,,,,,,,,,,,,,,,,,,,,,,,,,,"45.9",",,,N",,,"0",",,,N",,,,,,,,,,,,,,,,,,
"US1INEL0023","MILLERSBURG 1.1 SSW, IN US","41.510902","-85.703573","264.9","2008-10",,,,,,,"11",",N","6",",N",,,"0",",N",,,,,,,,,,,,,,,"0.0",",,N,31,+","22.6",",,N,16,",,,,,,,,,,,,,,,,,,,,,,,,,,,,,,,,,,,,,,,,,,,,,,,,,,,,,,,,,,,,,,,,,,,,,,,,,,,,,,,,,,,,,"72.6",",,,N",,,"0",",,,N",,,,,,,,,,,,,,,,,,
"US1INCS0001","GALVESTON 1.3 ESE, IN US","40.570032","-86.16709","246.9","2008-10",,,,,,,,,,,,,,,,,,,,,,,,,,,,,,,,,,,,,,,,,,,,,,,,,,,,,,,,,,,,,,,,,,,,,,,,,,,,,,,,,,,,,,,,,,,,,,,,,,,,,,,,,,,,,,,,,,,,,"58.0","5,a,,N",,,,,,,,,,,,,,,,,,,,,,
"US1INMN0007","BLOOMINGTON 6.5 WNW, IN US","39.208272","-86.630458","253.9","2008-10",,,,,,,"7",",N","3",",N",,,"0",",N",,,,,,,,,,,,,,,"0.0",",,N,31,+","22.4",",,N,08,",,,,,,,,,,,,,,,,,,,,,,,,,,,,,,,,,,,,,,,,,,,,,,,,,,,,,,,,,,,,,,,,,,,,,,,,,,,,,,,,,,,,,"47.9",",,,N",,,"0",",,,N",,,,,,,,,,,,,,,,,,
"US1INEL0025","NEW PARIS 1.0 SSW, IN US","41.4913","-85.8331","246.9","2008-10",,,,,,,,,,,,,,,,,,,,,,,,,,,,,,,,,,,,,,,,,,,,,,,,,,,,,,,,,,,,,,,,,,,,,,,,,,,,,,,,,,,,,,,,,,,,,,,,,,,,,,,,,,,,,,,,,,,,,"75.1","3,a,,N",,,,,,,,,,,,,,,,,,,,,,
"US1INMN0008","BLOOMINGTON 6.9 S, IN US","39.0662","-86.5272","223.1","2008-10",,,,,,,"6",",N","3",",N",,,"0",",N",,,,,,,,,,,,,,,"0.0",",,N,31,+","25.4",",,N,08,",,,,,,,,,,,,,,,,,,,,,,,,,,,,,,,,,,,,,,,,,,,,,,,,,,,,,,,,,,,,,,,,,,,,,,,,,,,,,,,,,,,,,"49.0",",,,N",,,"0",",,,N",,,,,,,,,,,,,,,,,,
"US1INCS0004","LOGANSPORT 0.8 E, IN US","40.753183","-86.343052","198.1","2008-10",,,,,,,"9","2,N","4","2,N","0","3,N","0","2,N",,,,,,,,,,,,,"0","3,,N,31,+","0.0","2,,N,31,+","28.4","2,,N,08,",,,,,,,,,,,,,,,,,,,,,,,,,,,,,,,,,,,,,,,,,,,,,,,,,,,,,,,,,,,,,,,,,,,,,,,,,,,,,,,,,,,,,"64.4","2,,,N",,,"0","2,,,N",,,,,,,,,,,,,,,,,,
"US1INBN0015","KIRKLIN 5.0 WSW, IN US","40.173548","-86.450042","271.9","2008-10",,,,,,,"5",",N","4",",N",,,"0",",N",,,,,,,,,,,,,,,"0.0",",,N,31,+","18.0",",,N,16,",,,,,,,,,,,,,,,,,,,,,,,,,,,,,,,,,,,,,,,,,,,,,,,,,,,,,,,,,,,,,,,,,,,,,,,,,,,,,,,,,,,,,"53.0",",,,N",,,"0",",,,N",,,,,,,,,,,,,,,,,,
"US1INEL0029","MILFORD 2.6 NNW, IN US","41.44719639","-85.85951451","249.9","2008-10",,,,,,,"10","1,N","5","1,N",,,"0","1,N",,,,,,,,,,,,,,,"0.0","1,,N,31,+","24.9","1,,N,16,",,,,,,,,,,,,,,,,,,,,,,,,,,,,,,,,,,,,,,,,,,,,,,,,,,,,,,,,,,,,,,,,,,,,,,,,,,,,,,,,,,,,,"72.4","1,,,N",,,"0","1,,,N",,,,,,,,,,,,,,,,,,
"US1INBN0017","THORNTOWN 3.4 SW, IN US","40.090749","-86.650062","267.9","2008-10",,,,,,,"9",",N","4",",N",,,"0",",N",,,,,,,,,,,,,,,"0.0",",,N,31,+","26.4",",,N,08,",,,,,,,,,,,,,,,,,,,,,,,,,,,,,,,,,,,,,,,,,,,,,,,,,,,,,,,,,,,,,,,,,,,,,,,,,,,,,,,,,,,,,"49.7",",,,N",,,"0",",,,N",,,,,,,,,,,,,,,,,,
"US1INMN0001","BLOOMINGTON 3.9 E, IN US","39.164259","-86.448457","249.0","2008-10",,,,,,,"6","2,N","2","2,N",,,"0","2,N",,,,,,,,,,,,,,,"0.0","2,T,N,28,","26.7","2,,N,08,",,,,,,,,,,,,,,,,,,,,,,,,,,,,,,,,,,,,,,,,,,,,,,,,,,,,,,,,,,,,,,,,,,,,,,,,,,,,,,,,,,,,,"55.4",",a,,N",,,"0","2,T,,N",,,,,,,,,,,,,,,,,,
"US1INMN0002","BLOOMINGTON 7.1 WSW, IN US","39.141","-86.65","289.9","2008-10",,,,,,,"4","3,N","3","3,N",,,"0","3,N",,,,,,,,,,,,,,,"0.0","3,,N,31,+","26.9","3,,N,08,",,,,,,,,,,,,,,,,,,,,,,,,,,,,,,,,,,,,,,,,,,,,,,,,,,,,,,,,,,,,,,,,,,,,,,,,,,,,,,,,,,,,,"48.0","3,,,N",,,"0","3,,,N",,,,,,,,,,,,,,,,,,
"USC00122594","ELKHART PUBLIC WORKS AND UT, IN US","41.6778","-86.0022","228.6","2008-10",,,,,,,"15",",0","8",",0","0",",0","0",",0",,,,,,,,,,,,,"0",",,0,31,+","0.0",",,0,31,+","19.8",",,0,24,",,,,,,,,,,,,,,,,,,,,,,,,,,,,,,,,,,,,,,,,,,,,,,,,,,,,,,,,,,,,,,,,,,,,,,,,,,,,,,,,,,,,,"76.4",",,,0",,,"0",",,,0",,,,,,,,,,,,,,,,,,
"US1INEL0020","GOSHEN 1.9 NW, IN US","41.594164","-85.866005","242.9","2008-10",,,,,,,"17",",N","6",",N",,,"0",",N",,,,,,,,,,,,,,,"0.0",",,N,31,+","24.9",",,N,25,",,,,,,,,,,,,,,,,,,,,,,,,,,,,,,,,,,,,,,,,,,,,,,,,,,,,,,,,,,,,,,,,,,,,,,,,,,,,,,,,,,,,,"89.8",",,,N",,,"0",",,,N",,,,,,,,,,,,,,,,,,
"US1INMN0003","ELLETTSVILLE 2.7 NE, IN US","39.261861","-86.593625","233.2","2008-10",,,,,,,"9","2,N","4","2,N",,,"0","2,N",,,,,,,,,,,,,,,"0.0","2,,N,31,+","21.1","2,,N,08,",,,,,,,,,,,,,,,,,,,,,,,,,,,,,,,,,,,,,,,,,,,,,,,,,,,,,,,,,,,,,,,,,,,,,,,,,,,,,,,,,,,,,"48.6","2,,,N",,,"0","2,,,N",,,,,,,,,,,,,,,,,,
"USC00126830","PERRYSVILLE 4 WNW, IN US","40.0738","-87.5066","186.2","2008-10",,,"471.4","0","5.5",",0","9",",0","4",",0","0",",0","0",",0","0",",0","7",",0","0",",0","12",",0","0",",0","-5.0",",0,30,","0",",,0,31,+","0.0",",,0,31,+","18.5",",,0,08,","29.4",",0,13,+",,,"226.2","0",,,,,,,,,,,,,"205.0",",0",,,,,,,,,,,,,,,,,,,,,,,,,,,,,,,,,,,,,,,,,,,,,,,,,,,,,,,,,,,,,,,,,"49.2",",,,0",,,"0",",,,0","11.9",",0","19.9",",,,0","3.9",",,,0",,,,,,,,,,,,
"US1INNW0007","BROOK 4.2 W, IN US","40.866767","-87.445439","203.0","2008-10",,,,,,,"7","3,N","3","3,N",,,"0","3,N",,,,,,,,,,,,,,,"0.0","3,,N,31,+","24.1","3,,N,16,",,,,,,,,,,,,,,,,,,,,,,,,,,,,,,,,,,,,,,,,,,,,,,,,,,,,,,,,,,,,,,,,,,,,,,,,,,,,,,,,,,,,,"58.5",",a,,N",,,"0","3,,,N",,,,,,,,,,,,,,,,,,
"USC00120177","ANDERSON 1 N, IN US","40.1167","-85.68131","256.9","2008-10",,,,,"11.5",",0","7",",0","6",",0","0",",0","0",",0","0",",0","4",",0","0",",0","11",",0","0",",0","-2.8",",0,30,","0",",,0,31,+","0.0",",,0,31,+","29.0",",,0,07,","28.9",",0,12,+",,,"211.1","0",,,,,,,,,,,,,"196.2",",0",,,,,,,,,,,,,,,,,,,,,,,,,,,,,,,,,,,,,,,,,,,,,,,,,,,,,,,,,,,,,,,,,"82.6",",,,0",,,"0",",,,0","12.4",",0","18.5",",,,0","6.2",",,,0",,,,,,,,,,,,
"USC00124657","KNOX WWTP, IN US","41.3053","-86.6285","210.3","2008-10",,,"285.5","0","3.1",",0","12",",0","5",",0","1",",0","0",",0","0",",0","6",",0","0",",0","4",",0","0",",0","-3.9",",0,30,","25",",,0,28,","13.0",",,0,28,","33.0",",,0,08,","27.2",",0,13,",,,"318.0","0",,,,,,,,,,,,,"263.9",",0",,,,,,,,,,,,,,,,,,,,,,,,,,,,,,,,,,,,,,,,,,,,,,,,,,,,,,,,,,,,,,,,,"88.2",",,,0",,,"13",",,,0","9.9",",0","16.1",",,,0","3.8",",,,0",,,,,,,,,,,,
"USC00124778","LAKE VILLAGE 7 SE, IN US","41.08586","-87.38331","205.7","2008-10",,,,,,,"7",",0","4",",0","0",",0","0",",0",,,,,,,,,,,,,"0",",,0,31,+","0.0",",,0,31,+","29.0",",,0,16,",,,,,,,,,,,,,,,,,,,,,,,,,,,,,,,,,,,,,,,,,,,,,,,,,,,,,,,,,,,,,,,,,,,,,,,,,,,,,,,,,,,,,"77.8",",,,0",,,"0",",,,0",,,,,,,,,,,,,,,,,,
"US1INNW0005","KENTLAND 0.6 NNW, IN US","40.780751","-87.449527","203.9","2008-10",,,,,,,"6","3,N","3","3,N",,,"0","3,N",,,,,,,,,,,,,,,"0.0","3,,N,31,+","28.7","3,,N,16,",,,,,,,,,,,,,,,,,,,,,,,,,,,,,,,,,,,,,,,,,,,,,,,,,,,,,,,,,,,,,,,,,,,,,,,,,,,,,,,,,,,,,"59.7",",a,,N",,,"0","3,,,N",,,,,,,,,,,,,,,,,,
"US1INSJ0029","GRANGER 3.5 ENE, IN US","41.760507","-86.079938","242.0","2008-10",,,,,,,"16","2,N","8","2,N",,,"0","2,N",,,,,,,,,,,,,,,"0.0","2,T,N,28,","26.2","2,,N,25,",,,,,,,,,,,,,,,,,,,,,,,,,,,,,,,,,,,,,,,,,,,,,,,,,,,,,,,,,,,,,,,,,,,,,,,,,,,,,,,,,,,,,"88.3","2,,,N",,,"0","2,T,,N",,,,,,,,,,,,,,,,,,
"US1INNW0006","KENTLAND 1.7 SSE, IN US","40.751059","-87.428932","216.1","2008-10",,,,,,,"8","1,N","4","1,N",,,"0","1,N",,,,,,,,,,,,,,,"0.0","1,,N,31,+","22.9","1,,N,16,",,,,,,,,,,,,,,,,,,,,,,,,,,,,,,,,,,,,,,,,,,,,,,,,,,,,,,,,,,,,,,,,,,,,,,,,,,,,,,,,,,,,,"57.5","1,,,N",,,"0","1,,,N",,,,,,,,,,,,,,,,,,
"US1INSJ0028","SOUTH BEND 4.6 SE, IN US","41.6209","-86.2152","269.4","2008-10",,,,,,,"14",",N","7",",N",,,"0",",N",,,,,,,,,,,,,,,"0.0",",T,N,28,","26.9",",,N,25,",,,,,,,,,,,,,,,,,,,,,,,,,,,,,,,,,,,,,,,,,,,,,,,,,,,,,,,,,,,,,,,,,,,,,,,,,,,,,,,,,,,,,"79.3",",,,N",,,"0",",T,,N",,,,,,,,,,,,,,,,,,
"USW00094895","MUNCIE DELAWARE CO AIRPORT, IN US","40.23451","-85.39356","285.2","2008-10","3.5",",W","444.7","W","10.4",",W","10",",W","5",",W",,,,,"0",",W","5",",W","0",",W","11",",W","0",",W","-4.3",",W,30,",,,,,"19.6",",,W,24,","29.4",",W,12,+",,,"218.1","W",,,,,,,,,,,,,"201.7",",W",,,,,,,,,,,,,,,,,,,,,,,,,,,,,,,,,,,,,,,,,,,,,,,,,,,,,,,,,,,,,,,,,"58.3",",,,W",,,,,"12.2",",W","18.6",",,,W","5.7",",,,W",,,"310",",W","310",",W",,,"17.9",",W","21.9",",W"
"US1INNW0003","KENTLAND 0.3 ENE, IN US","40.774332","-87.440872","210.0","2008-10",,,,,,,"9",",N","4",",N",,,"0",",N",,,,,,,,,,,,,,,"0.0",",,N,31,+","27.2",",,N,16,",,,,,,,,,,,,,,,,,,,,,,,,,,,,,,,,,,,,,,,,,,,,,,,,,,,,,,,,,,,,,,,,,,,,,,,,,,,,,,,,,,,,,"64.7",",,,N",,,"0",",,,N",,,,,,,,,,,,,,,,,,
"US1INSJ0027","SOUTH BEND 1.7 NNW, IN US","41.698819","-86.272885","218.8","2008-10",,,,,,,"15","2,N","7","2,N",,,"0","2,N",,,,,,,,,,,,,,,"5.0","2,,N,28,","34.8","2,,N,25,",,,,,,,,,,,,,,,,,,,,,,,,,,,,,,,,,,,,,,,,,,,,,,,,,,,,,,,,,,,,,,,,,,,,,,,,,,,,,,,,,,,,,"97.4",",a,,N",,,"5","2,,,N",,,,,,,,,,,,,,,,,,
"US1INNW0001","MOUNT AYR 1.6 NNE, IN US","40.973306","-87.290494","206.0","2008-10",,,,,,,"10","1,N","4","1,N",,,"0","1,N",,,,,,,,,,,,,,,"0.0","1,T,N,28,","23.4","1,,N,16,",,,,,,,,,,,,,,,,,,,,,,,,,,,,,,,,,,,,,,,,,,,,,,,,,,,,,,,,,,,,,,,,,,,,,,,,,,,,,,,,,,,,,"52.6","1,,,N",,,"0","1,T,,N",,,,,,,,,,,,,,,,,,
"USC00123207","GARRETT 1 S, IN US","41.3366","-85.1198","265.2","2008-10",,,"371.4","0","2.2",",0","9",",0","6",",0","0",",0","0",",0","0",",0","6",",0","0",",0","7",",0","0",",0","-5.0",",0,30,","0",",,0,31,+","0.0",",,0,31,+","21.1",",,0,24,","28.3",",0,12,",,,"259.1","0",,,,,,,,,,,,,"235.8",",0",,,,,,,,,,,,,,,,,,,,,,,,,,,,,,,,,,,,,,,,,,,,,,,,,,,,,,,,,,,,,,,,,"49.2",",,,0",,,"0",",,,0","10.8",",0","17.1",",,,0","4.5",",,,0",,,,,,,,,,,,
"US1INMR0023","INDIANAPOLIS 7.4 W, IN US","39.78355","-86.28528","235.0","2008-10",,,,,,,"4","3,N","4","3,N",,,"0","3,N",,,,,,,,,,,,,,,"0.0","3,,N,31,+","19.1","3,,N,24,",,,,,,,,,,,,,,,,,,,,,,,,,,,,,,,,,,,,,,,,,,,,,,,,,,,,,,,,,,,,,,,,,,,,,,,,,,,,,,,,,,,,,"42.6","3,,,N",,,"0","3,,,N",,,,,,,,,,,,,,,,,,
"US1INSJ0024","MISHAWAKA 2.5 SE, IN US","41.648","-86.129","224.0","2008-10",,,,,,,"15",",N","7",",N",,,"0",",N",,,,,,,,,,,,,,,"0.0",",T,N,28,","21.8",",,N,25,",,,,,,,,,,,,,,,,,,,,,,,,,,,,,,,,,,,,,,,,,,,,,,,,,,,,,,,,,,,,,,,,,,,,,,,,,,,,,,,,,,,,,"79.2",",,,N",,,"0",",T,,N",,,,,,,,,,,,,,,,,,
"US1INBN0001","LEBANON 3.9 WSW, IN US","40.035","-86.544736","285.9","2008-10",,,,,,,"9",",N","4",",N",,,"0",",N",,,,,,,,,,,,,,,"0.0",",,N,31,+","17.5",",,N,08,",,,,,,,,,,,,,,,,,,,,,,,,,,,,,,,,,,,,,,,,,,,,,,,,,,,,,,,,,,,,,,,,,,,,,,,,,,,,,,,,,,,,,"47.4",",,,N",,,"0",",,,N",,,,,,,,,,,,,,,,,,
"US1INKN0005","VINCENNES 1.0 SE, IN US","38.66773","-87.49588","150.0","2008-10",,,,,,,"4","1,N","3","1,N",,,"0","1,N",,,,,,,,,,,,,,,"0.0","1,,N,31,+","11.4","1,,N,24,+",,,,,,,,,,,,,,,,,,,,,,,,,,,,,,,,,,,,,,,,,,,,,,,,,,,,,,,,,,,,,,,,,,,,,,,,,,,,,,,,,,,,,"28.6","1,,,N",,,"0","1,,,N",,,,,,,,,,,,,,,,,,
"US1INMR0016","INDIANAPOLIS 3.2 S, IN US","39.73116","-86.156329","216.1","2008-10",,,,,,,"6",",N","5",",N",,,"0",",N",,,,,,,,,,,,,,,"0.0",",T,N,27,","19.6",",,N,24,",,,,,,,,,,,,,,,,,,,,,,,,,,,,,,,,,,,,,,,,,,,,,,,,,,,,,,,,,,,,,,,,,,,,,,,,,,,,,,,,,,,,,"54.1",",,,N",,,"0",",T,,N",,,,,,,,,,,,,,,,,,
"US1INSJ0020","SOUTH BEND 1.5 NE, IN US","41.690941","-86.245922","226.2","2008-10",,,,,,,,,,,,,,,,,,,,,,,,,,,,,,,,,,,,,,,,,,,,,,,,,,,,,,,,,,,,,,,,,,,,,,,,,,,,,,,,,,,,,,,,,,,,,,,,,,,,,,,,,,,,,,,,,,,,,"71.3","3,a,,N",,,,,,,,,,,,,,,,,,,,,,
"US1INBN0009","THORNTOWN 2.9 WSW, IN US","40.105264","-86.656594","259.1","2008-10",,,,,,,"7",",N","4",",N",,,"0",",N",,,,,,,,,,,,,,,"0.0",",,N,31,+","25.1",",,N,08,",,,,,,,,,,,,,,,,,,,,,,,,,,,,,,,,,,,,,,,,,,,,,,,,,,,,,,,,,,,,,,,,,,,,,,,,,,,,,,,,,,,,,"49.3",",,,N",,,"0",",,,N",,,,,,,,,,,,,,,,,,
"US1INEL0017","SYRACUSE 4.4 NNW, IN US","41.48472","-85.7701","252.1","2008-10",,,,,,,"13",",N","7",",N",,,"0",",N",,,,,,,,,,,,,,,"0.0",",,N,31,+","23.4",",,N,16,",,,,,,,,,,,,,,,,,,,,,,,,,,,,,,,,,,,,,,,,,,,,,,,,,,,,,,,,,,,,,,,,,,,,,,,,,,,,,,,,,,,,,"77.1",",,,N",,,"0",",,,N",,,,,,,,,,,,,,,,,,
"US1INBN0007","LIZTON 4.5 NNE, IN US","39.94974","-86.52496","292.0","2008-10",,,,,,,"5",",N","4",",N",,,"0",",N",,,,,,,,,,,,,,,"0.0",",,N,31,+","21.3",",,N,08,",,,,,,,,,,,,,,,,,,,,,,,,,,,,,,,,,,,,,,,,,,,,,,,,,,,,,,,,,,,,,,,,,,,,,,,,,,,,,,,,,,,,,"52.1",",,,N",,,"0",",,,N",,,,,,,,,,,,,,,,,,
"US1INEL0019","GOSHEN 1.2 WNW, IN US","41.582699","-85.858244","243.8","2008-10",,,,,,,"10","5,N","5","5,N",,,"0","4,N",,,,,,,,,,,,,,,"0.0","4,T,N,28,","21.3","5,,N,16,",,,,,,,,,,,,,,,,,,,,,,,,,,,,,,,,,,,,,,,,,,,,,,,,,,,,,,,,,,,,,,,,,,,,,,,,,,,,,,,,,,,,,"59.3","5,,,N",,,"0","4,T,,N",,,,,,,,,,,,,,,,,,
"USC00120182","ANDERSON WATERWORKS, IN US","40.1051","-85.6716","265.2","2008-10",,,,,,,"5",",0","5",",0","0",",0","0",",0",,,,,,,,,,,,,"0",",,0,31,+","0.0",",,0,31,+","19.1",",,0,16,",,,,,,,,,,,,,,,,,,,,,,,,,,,,,,,,,,,,,,,,,,,,,,,,,,,,,,,,,,,,,,,,,,,,,,,,,,,,,,,,,,,,,"59.7",",,,0",,,"0",",,,0",,,,,,,,,,,,,,,,,,
"USC00124782","LAKEVILLE, IN US","41.5269","-86.2692","256.3","2008-10",,,,,"1.7","3,0","11",",0","6",",0","1",",0","1",",0","0","2,0","8","2,0","0","1,0","5","1,0","0","1,0","-3.9","2,0,29,","25",",,0,27,","51.0",",,0,27,","29.5",",,0,24,","28.3","1,0,12,",,,,,,,,,,,,,,,,,"228.2","1,0",,,,,,,,,,,,,,,,,,,,,,,,,,,,,,,,,,,,,,,,,,,,,,,,,,,,,,,,,,,,,,,,,"90.5",",,,0",,,"51",",,,0","10.0","3,0","16.6","1,,,0","3.5","2,,,0",,,,,,,,,,,,
"USC00121030","BROOKVILLE, IN US","39.42387","-85.01445","192.0","2008-10",,,"516.8","0","7.6",",0","3",",0","3",",0","0",",0","0",",0","0",",0","7",",0","0",",0","14",",0","0",",0","-3.3",",0,31,","0",",,0,31,+","0.0",",,0,31,+","24.1",",,0,25,","30.6",",0,13,",,,"188.4","0",,,,,,,,,,,,,"181.2",",0",,,,,,,,,,,,,,,,,,,,,,,,,,,,,,,,,,,,,,,,,,,,,,,,,,,,,,,,,,,,,,,,,"40.8",",,,0",,,"0",",,,0","12.7",",0","20.5",",,,0","4.9",",,,0",,,,,,,,,,,,
"US1INPL0004","WINAMAC 5.3 WSW, IN US","41.02934","-86.70065","213.1","2008-10",,,,,,,"12",",N","4",",N",,,"0","1,N",,,,,,,,,,,,,,,"0.0","1,,N,31,+","24.4",",,N,08,",,,,,,,,,,,,,,,,,,,,,,,,,,,,,,,,,,,,,,,,,,,,,,,,,,,,,,,,,,,,,,,,,,,,,,,,,,,,,,,,,,,,,"65.5",",,,N",,,"0","1,,,N",,,,,,,,,,,,,,,,,,
"USC00124662","KOKOMO 3 WSW, IN US","40.4582","-86.1758","250.5","2008-10",,,"368.3","0","3.6",",0","7",",0","4",",0","0",",0","0",",0","0",",0","6",",0","0",",0","11",",0","0",",0","-4.4",",0,22,","0",",T,0,29,","0.0",",T,0,29,","16.5",",,0,16,","30.0",",0,13,",,,"253.7","0",,,,,,,,,,,,,"223.9",",0",,,,,,,,,,,,,,,,,,,,,,,,,,,,,,,,,,,,,,,,,,,,,,,,,,,,,,,,,,,,,,,,,"48.8",",,,0",,,"0",",T,,0","11.2",",0","18.5",",,,0","3.9",",,,0",,,,,,,,,,,,
"USC00127935","SEYMOUR 1 WSW, IN US","38.9543","-85.90452","172.8","2008-10",,,"476.4","0","9.2",",0","5",",0","4",",0","0",",0","0",",0","0",",0","7",",0","0",",0","13",",0","0",",0","-3.3",",0,31,+","0",",,0,31,+","0.0",",,0,31,+","30.7",",,0,25,","30.0",",0,13,",,,"208.0","0",,,,,,,,,,,,,"194.1",",0",,,,,,,,,,,,,,,,,,,,,,,,,,,,,,,,,,,,,,,,,,,,,,,,,,,,,,,,,,,,,,,,,"69.2",",,,0",,,"0",",,,0","12.4",",0","19.9",",,,0","4.8",",,,0",,,,,,,,,,,,
"USC00124667","KOKOMO 5 WSW, IN US","40.4614","-86.2122","248.1","2008-10",,,,,,,"5",",0","4",",0","0",",0","0",",0",,,,,,,,,,,,,"0",",T,0,28,","0.0",",T,0,28,","18.0",",,0,16,",,,,,,,,,,,,,,,,,,,,,,,,,,,,,,,,,,,,,,,,,,,,,,,,,,,,,,,,,,,,,,,,,,,,,,,,,,,,,,,,,,,,,"49.8",",,,0",,,"0",",T,,0",,,,,,,,,,,,,,,,,,
"US1INSJ0016","GRANGER 2.9 W, IN US","41.737267","-86.19491","246.9","2008-10",,,,,,,"13","4,N","6","4,N",,,"0","4,N",,,,,,,,,,,,,,,"0.0","4,,N,31,+","27.4","4,,N,25,",,,,,,,,,,,,,,,,,,,,,,,,,,,,,,,,,,,,,,,,,,,,,,,,,,,,,,,,,,,,,,,,,,,,,,,,,,,,,,,,,,,,,"77.8","4,,,N",,,"0","4,,,N",,,,,,,,,,,,,,,,,,
"US1INPL0002","ROYAL CENTER 6.0 NW, IN US","40.924955","-86.584035","224.0","2008-10",,,,,,,"9",",N","5",",N",,,"0",",N",,,,,,,,,,,,,,,"0.0",",,N,31,+","24.1",",,N,08,",,,,,,,,,,,,,,,,,,,,,,,,,,,,,,,,,,,,,,,,,,,,,,,,,,,,,,,,,,,,,,,,,,,,,,,,,,,,,,,,,,,,,"67.3",",,,N",,,"0",",,,N",,,,,,,,,,,,,,,,,,
"US1INSJ0013","GRANGER 1.6 N, IN US","41.75824","-86.14387","242.0","2008-10",,,,,,,"13","2,N","7","2,N",,,"0","2,N",,,,,,,,,,,,,,,"3.0","2,,N,28,","25.7","2,,N,25,",,,,,,,,,,,,,,,,,,,,,,,,,,,,,,,,,,,,,,,,,,,,,,,,,,,,,,,,,,,,,,,,,,,,,,,,,,,,,,,,,,,,,"93.3",",a,,N",,,"3","2,,,N",,,,,,,,,,,,,,,,,,
"US1INBN0033","LEBANON 3.7 N, IN US","40.104661","-86.472542","284.1","2008-10",,,,,,,"8",",N","4",",N",,,"0",",N",,,,,,,,,,,,,,,"0.0",",,N,31,+","18.5",",,N,08,",,,,,,,,,,,,,,,,,,,,,,,,,,,,,,,,,,,,,,,,,,,,,,,,,,,,,,,,,,,,,,,,,,,,,,,,,,,,,,,,,,,,,"47.8",",,,N",,,"0",",,,N",,,,,,,,,,,,,,,,,,
"US1INMR0048","INDIANAPOLIS 6.7 N, IN US","39.872521","-86.137312","217.3","2008-10",,,,,,,"3","4,N","2","4,N",,,"0",",N",,,,,,,,,,,,,,,"0.0",",,N,31,+","20.1","4,,N,08,",,,,,,,,,,,,,,,,,,,,,,,,,,,,,,,,,,,,,,,,,,,,,,,,,,,,,,,,,,,,,,,,,,,,,,,,,,,,,,,,,,,,,"24.9","4,,,N",,,"0",",,,N",,,,,,,,,,,,,,,,,,
"USW00003868","TERRE HAUTE HULMAN REGIONAL AIRPORT, IN US","39.4429","-87.32206","172.7","2008-10","2.6",",W","493.7","W","7.5",",W","3",",W","3",",W",,,,,"0",",W","4",",W","0",",W","13",",W","0",",W","-2.7",",W,30,",,,,,"16.3",",,W,07,","28.9",",W,11,",,,"195.0","W",,,,,,,,,,,,,"181.4",",W",,,,,,,,,,,,,,,,,,,,,,,,,,,,,,,,,,,,,,,,,,,,,,,,,,,,,,,,,,,,,,,,,"39.4",",,,W",,,,,"12.7",",W","19.6",",,,W","5.8",",,,W",,,"320",",W","240",",W",,,"11.6",",W","17.9",",W"
"USC00123104","FREELANDVILLE, IN US","38.8672","-87.3083","167.6","2008-10",,,"579.6","0","13.6",",0","4",",0","3",",0","0",",0","0",",0","0",",0","3",",0","0",",0","12",",0","0",",0","-2.2",",0,29,","0",",,0,31,+","0.0",",,0,31,+","15.5",",,0,08,","28.3",",0,13,+",,,"176.3","0",,,,,,,,,,,,,"169.4",",0",,,,,,,,,,,,,,,,,,,,,,,,,,,,,,,,,,,,,,,,,,,,,,,,,,,,,,,,,,,,,,,,,"34.3",",,,0",,,"0",",,,0","13.3",",0","19.5",",,,0","7.1",",,,0",,,,,,,,,,,,
"US1INSJ0007","GEORGETOWN 0.9 ESE, IN US","41.72375","-86.2134","246.0","2008-10",,,,,,,"13","1,N","7","1,N",,,"0","1,N",,,,,,,,,,,,,,,"0.0","1,T,N,28,","28.4","1,,N,25,",,,,,,,,,,,,,,,,,,,,,,,,,,,,,,,,,,,,,,,,,,,,,,,,,,,,,,,,,,,,,,,,,,,,,,,,,,,,,,,,,,,,,"92.7","1,,,N",,,"0","1,T,,N",,,,,,,,,,,,,,,,,,
"USC00125888","MOROCCO 1 NW, IN US","40.95855","-87.47784","205.4","2008-10",,,,,,,"7",",0","4",",0","0",",0","0",",0",,,,,,,,,,,,,"0",",,0,31,+","0.0",",,0,31,+","24.4",",,0,16,",,,,,,,,,,,,,,,,,,,,,,,,,,,,,,,,,,,,,,,,,,,,,,,,,,,,,,,,,,,,,,,,,,,,,,,,,,,,,,,,,,,,,"70.5",",,,0",,,"0",",,,0",,,,,,,,,,,,,,,,,,
"US1INMR0046","CAMBY 1.7 SW, IN US","39.63944","-86.325722","232.9","2008-10",,,,,,,"5",",N","5",",N",,,"0",",N",,,,,,,,,,,,,,,"0.0",",,N,31,+","20.3",",,N,08,",,,,,,,,,,,,,,,,,,,,,,,,,,,,,,,,,,,,,,,,,,,,,,,,,,,,,,,,,,,,,,,,,,,,,,,,,,,,,,,,,,,,,"57.6",",,,N",,,"0",",,,N",,,,,,,,,,,,,,,,,,
"USC00125407","MARTINSVILLE 2 SW, IN US","39.40427","-86.45262","180.4","2008-10",,,"364.9","0","3.1",",0","5",",0","4",",0","0",",0","0",",0","0",",0","8",",0","0",",0","11",",0","0",",0","-5.0",",0,31,","0",",,0,31,+","0.0",",,0,31,+","21.8",",,0,08,","27.8",",0,16,+",,,"237.7","0",,,,,,,,,,,,,"217.5",",0",,,,,,,,,,,,,,,,,,,,,,,,,,,,,,,,,,,,,,,,,,,,,,,,,,,,,,,,,,,,,,,,,"49.3",",,,0",,,"0",",,,0","11.4",",0","18.9",",,,0","3.9",",,,0",,,,,,,,,,,,
"USW00004846","VALPARAISO PORTER CO MUNICIPAL AIRPORT, IN US","41.4535","-86.997964","234.0","2008-10","3.2",",W","368.8","W","5.2",",W","8",",W","4",",W",,,,,"0",",W","4",",W","0",",W","7",",W","0",",W","-2.7",",W,30,",,,,,"19.0",",,W,15,","29.4",",W,12,",,,"259.5","W",,,,,,,,,,,,,"228.7",",W",,,,,,,,,,,,,,,,,,,,,,,,,,,,,,,,,,,,,,,,,,,,,,,,,,,,,,,,,,,,,,,,,"53.4",",,,W",,,,,"11.1",",W","16.9",",,,W","5.3",",,,W",,,"300",",W","330",",W",,,"15.7",",W","22.8",",W"
"US1INEL0034","ELKHART 3.1 S, IN US","41.6425","-85.9675","238.4","2008-10",,,,,,,"12",",N","7",",N",,,"0",",N",,,,,,,,,,,,,,,"0.0",",,N,31,+","20.1",",,N,25,",,,,,,,,,,,,,,,,,,,,,,,,,,,,,,,,,,,,,,,,,,,,,,,,,,,,,,,,,,,,,,,,,,,,,,,,,,,,,,,,,,,,,"81.0",",,,N",,,"0",",,,N",,,,,,,,,,,,,,,,,,
"US1INBN0027","LEBANON 5.8 ENE, IN US","40.090287","-86.37558","289.9","2008-10",,,,,,,"7",",N","4",",N",,,"0",",N",,,,,,,,,,,,,,,"0.0",",,N,31,+","25.4",",,N,08,",,,,,,,,,,,,,,,,,,,,,,,,,,,,,,,,,,,,,,,,,,,,,,,,,,,,,,,,,,,,,,,,,,,,,,,,,,,,,,,,,,,,,"53.4",",,,N",,,"0",",,,N",,,,,,,,,,,,,,,,,,
"US1INBN0026","LEBANON 1.7 NNE, IN US","40.076017","-86.465072","288.0","2008-10",,,,,,,"8",",N","4",",N",,,"0",",N",,,,,,,,,,,,,,,"0.0",",,N,31,+","13.7",",,N,08,",,,,,,,,,,,,,,,,,,,,,,,,,,,,,,,,,,,,,,,,,,,,,,,,,,,,,,,,,,,,,,,,,,,,,,,,,,,,,,,,,,,,,"43.4",",,,N",,,"0",",,,N",,,,,,,,,,,,,,,,,,
"US1INJH0004","FRANKLIN 3.0 S, IN US","39.448667","-86.056744","221.9","2008-10",,,,,,,"8",",N","5",",N",,,"0",",N",,,,,,,,,,,,,,,"0.0",",,N,31,+","17.8",",,N,24,",,,,,,,,,,,,,,,,,,,,,,,,,,,,,,,,,,,,,,,,,,,,,,,,,,,,,,,,,,,,,,,,,,,,,,,,,,,,,,,,,,,,,"49.1",",,,N",,,"0",",,,N",,,,,,,,,,,,,,,,,,
"US1INBN0028","SHERIDAN 3.9 SSW, IN US","40.085011","-86.254813","285.9","2008-10",,,,,,,"4",",N","4",",N",,,"0",",N",,,,,,,,,,,,,,,"0.0",",,N,31,+","14.2",",,N,08,",,,,,,,,,,,,,,,,,,,,,,,,,,,,,,,,,,,,,,,,,,,,,,,,,,,,,,,,,,,,,,,,,,,,,,,,,,,,,,,,,,,,,"43.9",",,,N",,,"0",",,,N",,,,,,,,,,,,,,,,,,
"US1INJS0011","WHEATFIELD 1.8 ENE, IN US","41.201213","-87.019525","207.9","2008-10",,,,,,,"14","1,N","5","1,N",,,"0","1,N",,,,,,,,,,,,,,,"0.0","1,,N,31,+","25.9","1,,N,16,",,,,,,,,,,,,,,,,,,,,,,,,,,,,,,,,,,,,,,,,,,,,,,,,,,,,,,,,,,,,,,,,,,,,,,,,,,,,,,,,,,,,,"68.4","1,,,N",,,"0","1,,,N",,,,,,,,,,,,,,,,,,
"US1INJS0016","RENSSELAER 8.4 ENE, IN US","40.992814","-87.006028","214.9","2008-10",,,,,,,"10",",N","4",",N",,,"0",",N",,,,,,,,,,,,,,,"0.0",",,N,31,+","29.7",",,N,16,",,,,,,,,,,,,,,,,,,,,,,,,,,,,,,,,,,,,,,,,,,,,,,,,,,,,,,,,,,,,,,,,,,,,,,,,,,,,,,,,,,,,,"66.8",",,,N",,,"0",",,,N",,,,,,,,,,,,,,,,,,
"US1INSL0002","SULLIVAN 0.3 WSW, IN US","39.095394","-87.41221","159.1","2008-10",,,,,,,"5",",N","3",",N",,,"0",",N",,,,,,,,,,,,,,,"0.0",",,N,31,+","15.0",",,N,08,",,,,,,,,,,,,,,,,,,,,,,,,,,,,,,,,,,,,,,,,,,,,,,,,,,,,,,,,,,,,,,,,,,,,,,,,,,,,,,,,,,,,,"42.2",",,,N",,,"0",",,,N",,,,,,,,,,,,,,,,,,
"US1INCR0002","CAMDEN 4.9 NNE, IN US","40.6775","-86.51025","221.9","2008-10",,,,,,,"10","3,N","3","3,N",,,"0","2,N",,,,,,,,,,,,,,,"0.0","2,,N,31,+","44.5","3,,N,08,",,,,,,,,,,,,,,,,,,,,,,,,,,,,,,,,,,,,,,,,,,,,,,,,,,,,,,,,,,,,,,,,,,,,,,,,,,,,,,,,,,,,,"63.8","3,,,N",,,"0","2,,,N",,,,,,,,,,,,,,,,,,
"USC00123513","GREENCASTLE 1 E, IN US","39.644","-86.8766","224.0","2008-10",,,"368.8","0","2.8",",0","4",",0","4",",0","0",",0","0",",0","0",",0","5",",0","0",",0","12",",0","0",",0","-4.4",",0,30,","0",",,0,31,+","0.0",",,0,31,+","19.1",",,0,08,","28.3",",0,13,+",,,"232.5","0",,,,,,,,,,,,,"208.6",",0",,,,,,,,,,,,,,,,,,,,,,,,,,,,,,,,,,,,,,,,,,,,,,,,,,,,,,,,,,,,,,,,,"45.8",",,,0",,,"0",",,,0","11.7",",0","19.0",",,,0","4.4",",,,0",,,,,,,,,,,,
"USC00122309","DUBOIS S IN FORAGE FARM, IN US","38.4558","-86.6983","210.3","2008-10",,,"532.2","0","13.7","1,0","4",",0","3",",0","0","1,0","0",",0","0","1,0","3","1,0","0",",0","16",",0","0",",0","-2.8","1,0,28,","0","1,,0,31,+","0.0",",,0,31,+","26.2",",,0,21,","31.1",",0,13,",,,"166.1","0",,,,,,,,,,,,,"160.3",",0",,,,,,,,,,,,,,,,,,,,,,,,,,,,,,,,,,,,,,,,,,,,,,,,,,,,,,,,,,,,,,,,,"56.2",",,,0",,,"0",",,,0","13.5","1,0","21.5",",,,0","5.6","1,,,0",,,,,,,,,,,,
"US1INJS0001","WHEATFIELD 2.8 S, IN US","41.152314","-87.035915","206.0","2008-10",,,,,,,"10",",N","5",",N",,,"0",",N",,,,,,,,,,,,,,,"0.0",",,N,31,+","25.4",",,N,16,",,,,,,,,,,,,,,,,,,,,,,,,,,,,,,,,,,,,,,,,,,,,,,,,,,,,,,,,,,,,,,,,,,,,,,,,,,,,,,,,,,,,,"67.4",",,,N",,,"0",",,,N",,,,,,,,,,,,,,,,,,
"USC00124730","LAGRANGE, IN US","41.6474","-85.4121","274.3","2008-10",,,,,"3.3","5,0","8","4,0","2","4,0","0",",0","0",",0","0","5,0","5","5,0","0","5,0","4","5,0","0","5,0","-3.3","5,0,30,","0",",,0,31,+","0.0",",,0,31,+","3.3","4,,0,03,","28.3","5,0,13,",,,"251.1","0",,,,,,,,,,,,,"216.0","5,0",,,,,,,,,,,,,,,,,,,,,,,,,,,,,,,,,,,,,,,,,,,,,,,,,,,,,,,,,,,,,,,,,"43.9",",a,,0",,,"0",",,,0","10.1","5,0","16.2","5,,,0","4.1","5,,,0",,,,,,,,,,,,
"US1INLK0008","HAMMOND 3.0 SW, IN US","41.58649","-87.52428","185.9","2008-10",,,,,,,"12",",N","5",",N",,,"0",",N",,,,,,,,,,,,,,,"0.0",",,N,31,+","22.1",",,N,08,",,,,,,,,,,,,,,,,,,,,,,,,,,,,,,,,,,,,,,,,,,,,,,,,,,,,,,,,,,,,,,,,,,,,,,,,,,,,,,,,,,,,,"61.5",",,,N",,,"0",",,,N",,,,,,,,,,,,,,,,,,
"US1INOR0011","PAOLI 5.9 S, IN US","38.47367","-86.449652","189.9","2008-10",,,,,,,"5",",N","3",",N",,,"0",",N",,,,,,,,,,,,,,,"0.0",",,N,31,+","32.8",",,N,08,",,,,,,,,,,,,,,,,,,,,,,,,,,,,,,,,,,,,,,,,,,,,,,,,,,,,,,,,,,,,,,,,,,,,,,,,,,,,,,,,,,,,,"66.3",",,,N",,,"0",",,,N",,,,,,,,,,,,,,,,,,
"US1INLK0006","CROWN POINT 6.6 ESE, IN US","41.40262","-87.232749","230.1","2008-10",,,,,,,"9","4,N","7","4,N",,,"0","4,N",,,,,,,,,,,,,,,"0.0","4,,N,31,+","24.6","4,,N,08,",,,,,,,,,,,,,,,,,,,,,,,,,,,,,,,,,,,,,,,,,,,,,,,,,,,,,,,,,,,,,,,,,,,,,,,,,,,,,,,,,,,,,"91.4","4,,,N",,,"0","4,,,N",,,,,,,,,,,,,,,,,,
"US1INJS0004","RENSSELAER 0.5 SSW, IN US","40.92925","-87.153569","206.0","2008-10",,,,,,,"8",",N","4",",N",,,"0",",N",,,,,,,,,,,,,,,"0.0",",,N,31,+","27.2",",,N,16,",,,,,,,,,,,,,,,,,,,,,,,,,,,,,,,,,,,,,,,,,,,,,,,,,,,,,,,,,,,,,,,,,,,,,,,,,,,,,,,,,,,,,"52.8",",,,N",,,"0",",,,N",,,,,,,,,,,,,,,,,,
"US1INLK0005","CEDAR LAKE 1.7 SE, IN US","41.357389","-87.411212","224.0","2008-10",,,,,,,"4","5,N","4","5,N","0","5,N","0","5,N",,,,,,,,,,,,,"0","5,,N,31,+","0.0","5,,N,31,+","25.4","5,,N,16,",,,,,,,,,,,,,,,,,,,,,,,,,,,,,,,,,,,,,,,,,,,,,,,,,,,,,,,,,,,,,,,,,,,,,,,,,,,,,,,,,,,,,"53.6","5,,,N",,,"0","5,,,N",,,,,,,,,,,,,,,,,,
"US1INJS0009","RENSSELAER 5.3 WNW, IN US","40.970525","-87.240536","217.0","2008-10",,,,,,,"9",",N","4",",N",,,"0",",N",,,,,,,,,,,,,,,"0.0",",,N,31,+","26.4",",,N,16,",,,,,,,,,,,,,,,,,,,,,,,,,,,,,,,,,,,,,,,,,,,,,,,,,,,,,,,,,,,,,,,,,,,,,,,,,,,,,,,,,,,,,"57.9",",,,N",,,"0",",,,N",,,,,,,,,,,,,,,,,,
"USC00124613","KINGSBURY 1 N, IN US","41.53693","-86.70209","230.1","2008-10",,,,,,,"18",",0","8",",0","1","2,0","0",",0",,,,,,,,,,,,,"25","2,,0,28,","13.0",",,0,28,","26.7",",,0,08,",,,,,,,,,,,,,,,,,,,,,,,,,,,,,,,,,,,,,,,,,,,,,,,,,,,,,,,,,,,,,,,,,,,,,,,,,,,,,,,,,,,,,"91.9",",,,0",,,"13",",,,0",,,,,,,,,,,,,,,,,,
"USC00124977","LEXINGTON 3 N, IN US","38.675","-85.60333","192.0","2008-10",,,"275.2","0","3.6","1,0","5",",0","3",",0","0",",0","0",",0","0","1,0","10","1,0","0",",0","12",",0","0",",0","-4.4","1,0,30,+","0",",,0,31,+","0.0",",,0,31,+","31.8",",,0,07,","28.3",",0,12,",,,"265.5","0",,,,,,,,,,,,,"218.0",",0",,,,,,,,,,,,,,,,,,,,,,,,,,,,,,,,,,,,,,,,,,,,,,,,,,,,,,,,,,,,,,,,,"66.3",",,,0",,,"0",",,,0","11.2","1,0","18.7",",,,0","3.7","1,,,0",,,,,,,,,,,,
"US1INFY0002","CONNERSVILLE 6.7 SSE, IN US","39.5666733","-85.0905","313.0","2008-10",,,,,,,"7","1,N","3","1,N",,,"0","1,N",,,,,,,,,,,,,,,"0.0","1,,N,31,+","24.6","1,,N,25,",,,,,,,,,,,,,,,,,,,,,,,,,,,,,,,,,,,,,,,,,,,,,,,,,,,,,,,,,,,,,,,,,,,,,,,,,,,,,,,,,,,,,"38.1","1,,,N",,,"0","1,,,N",,,,,,,,,,,,,,,,,,
"US1INJS0007","RENSSELAER 1.9 SSW, IN US","40.908451","-87.158639","209.1","2008-10",,,,,,,,,,,,,,,,,,,,,,,,,,,,,,,,,,,,,,,,,,,,,,,,,,,,,,,,,,,,,,,,,,,,,,,,,,,,,,,,,,,,,,,,,,,,,,,,,,,,,,,,,,,,,,,,,,,,,"53.2","5,a,,N",,,,,,,,,,,,,,,,,,,,,,
"USC00125700","MITCHELL, IN US","38.7894","-86.3963","199.6","2008-10",,,,,,,"5",",0","4",",0","0",",0","0",",0",,,,,,,,,,,,,"0",",,0,31,+","0.0",",,0,31,+","22.9",",,0,08,",,,,,,,,,,,,,,,,,,,,,,,,,,,,,,,,,,,,,,,,,,,,,,,,,,,,,,,,,,,,,,,,,,,,,,,,,,,,,,,,,,,,,"58.2",",,,0",,,"0",",,,0",,,,,,,,,,,,,,,,,,
"US1INFY0003","CONNERSVILLE 3.9 N, IN US","39.712381","-85.13606","273.1","2008-10",,,,,,,"3",",N","2",",N",,,"0",",N",,,,,,,,,,,,,,,"0.0",",,N,31,+","14.0",",,N,25,",,,,,,,,,,,,,,,,,,,,,,,,,,,,,,,,,,,,,,,,,,,,,,,,,,,,,,,,,,,,,,,,,,,,,,,,,,,,,,,,,,,,,"21.9",",,,N",,,"0",",,,N",,,,,,,,,,,,,,,,,,
"USC00123527","GREENFIELD, IN US","39.7858","-85.7611","264.9","2008-10",,,"423.7","0","6.8","1,0","6","1,0","4","1,0","0",",0","0",",0","0","1,0","6","1,0","0","1,0","10","1,0","0","1,0","-2.8","1,0,31,+","0",",,0,31,+","0.0",",,0,31,+","15.5","1,,0,25,","28.9","1,0,13,",,,"215.5","0",,,,,,,,,,,,,"198.2","1,0",,,,,,,,,,,,,,,,,,,,,,,,,,,,,,,,,,,,,,,,,,,,,,,,,,,,,,,,,,,,,,,,,"51.8","1,,,0",,,"0",",,,0","11.9","1,0","18.4","1,,,0","5.6","1,,,0",,,,,,,,,,,,
"USW00003893","BLOOMINGTON MONROE CO AIRPORT, IN US","39.14317","-86.61676","253.3","2008-10","2.3",",W","448.2","W","8.4",",W","14",",W","3",",W",,,,,"0",",W","5",",W","0",",W","13",",W","0",",W","-3.8",",W,30,",,,,,"31.0",",,W,07,","28.3",",W,12,",,,"209.2","W",,,,,,,,,,,,,"193.7",",W",,,,,,,,,,,,,,,,,,,,,,,,,,,,,,,,,,,,,,,,,,,,,,,,,,,,,,,,,,,,,,,,,"71.1",",,,W",,,,,"12.4",",W","19.5",",,,W","5.2",",,,W",,,"270",",W","280",",W",,,"10.7",",W","16.1",",W"
"US1INOR0007","WEST BADEN SPRINGS 2.0 NNE, IN US","38.593303","-86.593326","166.1","2008-10",,,,,,,"4","1,N","4","1,N",,,"0","1,N",,,,,,,,,,,,,,,"0.0","1,,N,31,+","19.1","1,,N,24,",,,,,,,,,,,,,,,,,,,,,,,,,,,,,,,,,,,,,,,,,,,,,,,,,,,,,,,,,,,,,,,,,,,,,,,,,,,,,,,,,,,,,"50.8","1,,,N",,,"0","1,,,N",,,,,,,,,,,,,,,,,,
"US1INJS0032","RENSSELAER 6.2 SE, IN US","40.862608","-87.080175","205.1","2008-10",,,,,,,"13",",N","4",",N","0",",N","0",",N",,,,,,,,,,,,,"0",",,N,31,+","0.0",",,N,31,+","23.4",",,N,16,",,,,,,,,,,,,,,,,,,,,,,,,,,,,,,,,,,,,,,,,,,,,,,,,,,,,,,,,,,,,,,,,,,,,,,,,,,,,,,,,,,,,,"60.2",",,,N",,,"0",",,,N",,,,,,,,,,,,,,,,,,
"US1INMG0009","MARTINSVILLE 0.7 E, IN US","39.423396","-86.409085","191.1","2008-10",,,,,,,"5","1,N","4","1,N",,,"0","1,N",,,,,,,,,,,,,,,"0.0","1,,N,31,+","22.9","1,,N,08,",,,,,,,,,,,,,,,,,,,,,,,,,,,,,,,,,,,,,,,,,,,,,,,,,,,,,,,,,,,,,,,,,,,,,,,,,,,,,,,,,,,,,"49.9","1,,,N",,,"0","1,,,N",,,,,,,,,,,,,,,,,,
"US1INLK0019","SCHERERVILLE 2.0 WSW, IN US","41.476111","-87.481944","203.9","2008-10",,,,,,,"14",",N","7",",N",,,"0",",N",,,,,,,,,,,,,,,"0.0",",,N,31,+","16.0",",,N,08,",,,,,,,,,,,,,,,,,,,,,,,,,,,,,,,,,,,,,,,,,,,,,,,,,,,,,,,,,,,,,,,,,,,,,,,,,,,,,,,,,,,,,"70.5",",,,N",,,"0",",,,N",,,,,,,,,,,,,,,,,,
"US1INLK0018","HIGHLAND 1.1 S, IN US","41.5336","-87.4552","189.9","2008-10",,,,,,,"3",",N","3",",N",,,"0",",N",,,,,,,,,,,,,,,"0.0",",,N,31,+","16.8",",,N,08,",,,,,,,,,,,,,,,,,,,,,,,,,,,,,,,,,,,,,,,,,,,,,,,,,,,,,,,,,,,,,,,,,,,,,,,,,,,,,,,,,,,,,"34.1",",,,N",,,"0",",,,N",,,,,,,,,,,,,,,,,,
"US1INJS0037","DE MOTTE 0.8 NNW, IN US","41.210435","-87.205425","198.1","2008-10",,,,,,,"9","2,N","5","2,N",,,"0","2,N",,,,,,,,,,,,,,,"0.0","2,,N,31,+","31.5","2,,N,16,",,,,,,,,,,,,,,,,,,,,,,,,,,,,,,,,,,,,,,,,,,,,,,,,,,,,,,,,,,,,,,,,,,,,,,,,,,,,,,,,,,,,,"78.0","2,,,N",,,"0","2,,,N",,,,,,,,,,,,,,,,,,
"USC00126801","PENCE 1 SW, IN US","40.3522","-87.525","213.4","2008-10",,,,,,,,,,,"0",",0","0",",0",,,,,,,,,,,,,"0",",,0,31,+","0.0",",,0,31,+",,,,,,,,,,,,,,,,,,,,,,,,,,,,,,,,,,,,,,,,,,,,,,,,,,,,,,,,,,,,,,,,,,,,,,,,,,,,,,,,,,,,,,,"33.9","4,a,,0",,,"0",",,,0",,,,,,,,,,,,,,,,,,
"USC00123777","HARTFORD CITY 4 ESE, IN US","40.4355","-85.2891","281.6","2008-10",,,,,"8.9","5,0","9",",0","4",",0","0",",0","0",",0","0","3,0","6","3,0","0","3,0","9","3,0","0","3,0","-3.9","3,0,30,","0",",,0,31,+","0.0",",T,0,28,","13.0",",,0,25,","30.0","3,0,13,",,,"199.3","0",,,,,,,,,,,,,"183.1","3,0",,,,,,,,,,,,,,,,,,,,,,,,,,,,,,,,,,,,,,,,,,,,,,,,,,,,,,,,,,,,,,,,,"47.4",",,,0",,,"0",",T,,0","11.6","5,0","18.1","3,,,0","5.1","3,,,0",,,,,,,,,,,,
"US1INMG0001","MARTINSVILLE 1.4 NNE, IN US","39.441582","-86.413392","221.9","2008-10",,,,,,,"3",",N","3",",N",,,"0",",N",,,,,,,,,,,,,,,"0.0",",,N,31,+","21.1",",,N,25,",,,,,,,,,,,,,,,,,,,,,,,,,,,,,,,,,,,,,,,,,,,,,,,,,,,,,,,,,,,,,,,,,,,,,,,,,,,,,,,,,,,,,"48.6",",,,N",,,"0",",,,N",,,,,,,,,,,,,,,,,,
"USC00123418","GOSHEN 3 SW, IN US","41.5575","-85.8825","266.7","2008-10",,,"372.0","0","2.5",",0","14",",0","6",",0","0",",0","0",",0","0",",0","5",",0","0",",0","6",",0","0",",0","-2.2",",0,30,+","0",",,0,31,+","0.0",",T,0,28,","20.6",",,0,24,","28.3",",0,12,",,,"256.5","0",,,,,,,,,,,,,"228.9",",0",,,,,,,,,,,,,,,,,,,,,,,,,,,,,,,,,,,,,,,,,,,,,,,,,,,,,,,,,,,,,,,,,"83.3",",,,0",,,"0",",T,,0","11.0",",0","16.6",",,,0","5.4",",,,0",,,,,,,,,,,,
"US1INJS0041","FAIR OAKS 5.0 NE, IN US","41.105694","-87.170892","210.3","2008-10",,,,,,,"2",",N","2",",N",,,"0",",N",,,,,,,,,,,,,,,"0.0",",,N,31,+","3.8",",,N,02,",,,,,,,,,,,,,,,,,,,,,,,,,,,,,,,,,,,,,,,,,,,,,,,,,,,,,,,,,,,,,,,,,,,,,,,,,,,,,,,,,,,,,"6.6",",,,N",,,"0",",,,N",,,,,,,,,,,,,,,,,,
"US1INJS0023","REMINGTON 0.3 SSE, IN US","40.758436","-87.148439","223.1","2008-10",,,,,,,"4","2,N","4","2,N",,,"0","2,N",,,,,,,,,,,,,,,"0.0","2,,N,31,+","16.3","2,,N,08,",,,,,,,,,,,,,,,,,,,,,,,,,,,,,,,,,,,,,,,,,,,,,,,,,,,,,,,,,,,,,,,,,,,,,,,,,,,,,,,,,,,,,"40.4","2,,,N",,,"0","2,,,N",,,,,,,,,,,,,,,,,,
"US1INLK0026","CROWN POINT 1.1 N, IN US","41.439267","-87.3542","217.0","2008-10",,,,,,,"10","1,N","6","1,N",,,"0","1,N",,,,,,,,,,,,,,,"0.0","1,,N,31,+","22.9","1,,N,08,",,,,,,,,,,,,,,,,,,,,,,,,,,,,,,,,,,,,,,,,,,,,,,,,,,,,,,,,,,,,,,,,,,,,,,,,,,,,,,,,,,,,,"76.4","1,,,N",,,"0","1,,,N",,,,,,,,,,,,,,,,,,
"US1INLK0024","CROWN POINT 2.0 WSW, IN US","41.408917","-87.389939","230.1","2008-10",,,,,,,"10",",N","6",",N",,,"0",",N",,,,,,,,,,,,,,,"0.0",",T,N,28,","22.4",",,N,08,",,,,,,,,,,,,,,,,,,,,,,,,,,,,,,,,,,,,,,,,,,,,,,,,,,,,,,,,,,,,,,,,,,,,,,,,,,,,,,,,,,,,,"74.5",",,,N",,,"0",",T,,N",,,,,,,,,,,,,,,,,,
"US1INLK0029","CROWN POINT 3.1 WSW, IN US","41.412506","-87.415718","218.5","2008-10",,,,,,,"8",",N","5",",N",,,"0",",N",,,,,,,,,,,,,,,"0.0",",T,N,28,","18.3",",,N,16,",,,,,,,,,,,,,,,,,,,,,,,,,,,,,,,,,,,,,,,,,,,,,,,,,,,,,,,,,,,,,,,,,,,,,,,,,,,,,,,,,,,,,"58.4",",,,N",,,"0",",T,,N",,,,,,,,,,,,,,,,,,
"US1INLK0027","SCHERERVILLE 0.6 SSW, IN US","41.481097","-87.452916","206.0","2008-10",,,,,,,"12","4,N","6","4,N",,,"0","4,N",,,,,,,,,,,,,,,"0.0","4,,N,31,+","16.0","4,,N,08,",,,,,,,,,,,,,,,,,,,,,,,,,,,,,,,,,,,,,,,,,,,,,,,,,,,,,,,,,,,,,,,,,,,,,,,,,,,,,,,,,,,,,"66.5","4,,,N",,,"0","4,,,N",,,,,,,,,,,,,,,,,,
"USC00123547","GREENSBURG, IN US","39.3475","-85.4891","285.6","2008-10",,,,,"11.7",",0","5",",0","3",",0","0",",0","0",",0","0",",0","4",",0","0",",0","12",",0","0",",0","-1.7",",0,30,","0",",,0,31,+","0.0",",,0,31,+","13.5",",,0,25,","28.9",",0,13,",,,,,,,,,,,,,,,,,"185.4",",0",,,,,,,,,,,,,,,,,,,,,,,,,,,,,,,,,,,,,,,,,,,,,,,,,,,,,,,,,,,,,,,,,"37.4",",,,0",,,"0",",,,0","12.7",",0","19.4",",,,0","6.0",",,,0",,,,,,,,,,,,
"US1INMG0011","BROOKLYN 0.5 ENE, IN US","39.5446","-86.3629","209.1","2008-10",,,,,,,"5","3,N","2","3,N",,,"0","2,N",,,,,,,,,,,,,,,"0.0","2,,N,31,+","19.8","3,,N,08,",,,,,,,,,,,,,,,,,,,,,,,,,,,,,,,,,,,,,,,,,,,,,,,,,,,,,,,,,,,,,,,,,,,,,,,,,,,,,,,,,,,,,"35.9","3,,,N",,,"0","2,,,N",,,,,,,,,,,,,,,,,,
"US1INMG0012","STILESVILLE 3.6 S, IN US","39.586534","-86.633268","242.0","2008-10",,,,,,,"9",",N","4",",N",,,"0",",N",,,,,,,,,,,,,,,"0.0",",,N,31,+","11.7",",,N,08,",,,,,,,,,,,,,,,,,,,,,,,,,,,,,,,,,,,,,,,,,,,,,,,,,,,,,,,,,,,,,,,,,,,,,,,,,,,,,,,,,,,,,"38.7",",,,N",,,"0",",,,N",,,,,,,,,,,,,,,,,,
"US1INMG0014","GOSPORT 4.2 E, IN US","39.350765","-86.587055","220.1","2008-10",,,,,,,"6",",N","4",",N",,,"0",",N",,,,,,,,,,,,,,,"0.0",",,N,31,+","20.6",",,N,08,",,,,,,,,,,,,,,,,,,,,,,,,,,,,,,,,,,,,,,,,,,,,,,,,,,,,,,,,,,,,,,,,,,,,,,,,,,,,,,,,,,,,,"55.6",",,,N",,,"0",",,,N",,,,,,,,,,,,,,,,,,
"US1INMY0005","RUSSELLVILLE 0.9 NNE, IN US","39.869355","-86.976506","255.1","2008-10",,,,,,,"4",",N","4",",N",,,"0",",N",,,,,,,,,,,,,,,"0.0",",,N,31,+","13.7",",,N,16,",,,,,,,,,,,,,,,,,,,,,,,,,,,,,,,,,,,,,,,,,,,,,,,,,,,,,,,,,,,,,,,,,,,,,,,,,,,,,,,,,,,,,"43.1",",,,N",,,"0",",,,N",,,,,,,,,,,,,,,,,,
"US1INJS0031","DE MOTTE 5.9 S, IN US","41.114942","-87.199703","207.0","2008-10",,,,,,,"8","1,N","5","1,N",,,"0","1,N",,,,,,,,,,,,,,,"0.0","1,,N,31,+","20.8","1,,N,16,",,,,,,,,,,,,,,,,,,,,,,,,,,,,,,,,,,,,,,,,,,,,,,,,,,,,,,,,,,,,,,,,,,,,,,,,,,,,,,,,,,,,,"51.7","1,,,N",,,"0","1,,,N",,,,,,,,,,,,,,,,,,
"US1INLK0035","ST. JOHN 1.9 ENE, IN US","41.455907","-87.4412","221.9","2008-10",,,,,,,"5","4,N","5","4,N",,,"0","4,N",,,,,,,,,,,,,,,"0.0","4,,N,31,+","16.3","4,,N,09,",,,,,,,,,,,,,,,,,,,,,,,,,,,,,,,,,,,,,,,,,,,,,,,,,,,,,,,,,,,,,,,,,,,,,,,,,,,,,,,,,,,,,"52.2","4,,,N",,,"0","4,,,N",,,,,,,,,,,,,,,,,,
"US1INWY0009","COLUMBIA CITY 0.4 SW, IN US","41.15481","-85.491388","259.1","2008-10",,,,,,,"11","4,N","4","4,N",,,"0","4,N",,,,,,,,,,,,,,,"0.0","4,,N,31,+","21.8","4,,N,16,",,,,,,,,,,,,,,,,,,,,,,,,,,,,,,,,,,,,,,,,,,,,,,,,,,,,,,,,,,,,,,,,,,,,,,,,,,,,,,,,,,,,,"56.8","1,a,,N",,,"0","4,,,N",,,,,,,,,,,,,,,,,,
"USC00129138","WABASH, IN US","40.7917","-85.8258","202.7","2008-10",,,,,,,,,,,"0","2,0","0","2,0",,,,,,,,,,,,,"0","2,,0,31,+","0.0","2,,0,31,+",,,,,,,,,,,,,,,,,,,,,,,,,,,,,,,,,,,,,,,,,,,,,,,,,,,,,,,,,,,,,,,,,,,,,,,,,,,,,,,,,,,,,,,,,,,"0","2,,,0",,,,,,,,,,,,,,,,,,
"USC00120200","ANGOLA, IN US","41.6639","-85.0183","310.9","2008-10",,,"271.8","0","0.0",",0","12",",0","6",",0","0",",0","0",",0","0",",0","10",",0","0",",0","4",",0","0",",0","-5.0",",0,31,","0",",,0,31,+","0.0",",T,0,27,","21.8",",,0,25,","27.2",",0,13,",,,"338.0","0",,,,,,,,,,,,,"286.9",",0",,,,,,,,,,,,,,,,,,,,,,,,,,,,,,,,,,,,,,,,,,,,,,,,,,,,,,,,,,,,,,,,,"54.3",",,,0",,,"0",",T,,0","9.1",",0","15.4",",,,0","2.8",",,,0",,,,,,,,,,,,
"US1INLK0033","MERRILLVILLE 1.6 ESE, IN US","41.462089","-87.296764","216.7","2008-10",,,,,,,"16",",N","6",",N",,,"0",",N",,,,,,,,,,,,,,,"0.0",",,N,31,+","20.6",",,N,08,",,,,,,,,,,,,,,,,,,,,,,,,,,,,,,,,,,,,,,,,,,,,,,,,,,,,,,,,,,,,,,,,,,,,,,,,,,,,,,,,,,,,,"76.7",",,,N",,,"0",",,,N",,,,,,,,,,,,,,,,,,
"US1INLK0031","MERRILLVILLE 0.8 NNW, IN US","41.482634","-87.332453","200.9","2008-10",,,,,,,,,,,,,,,,,,,,,,,,,,,,,,,,,,,,,,,,,,,,,,,,,,,,,,,,,,,,,,,,,,,,,,,,,,,,,,,,,,,,,,,,,,,,,,,,,,,,,,,,,,,,,,,,,,,,,"79.3","5,a,,N",,,,,,,,,,,,,,,,,,,,,,
"USC00121417","CHALMERS 5 W, IN US","40.6653","-86.955","219.5","2008-10",,,,,"4.4",",0","8",",0","4",",0","0",",0","0",",0","0",",0","6",",0","0",",0","9",",0","0",",0","-3.9",",0,31,+","0",",,0,31,+","0.0",",,0,31,+","18.3",",,0,08,","30.0",",0,13,",,,,,,,,,,,,,,,,,"231.4",",0",,,,,,,,,,,,,,,,,,,,,,,,,,,,,,,,,,,,,,,,,,,,,,,,,,,,,,,,,,,,,,,,,"46.2",",,,0",,,"0",",,,0","11.0",",0","18.1",",,,0","4.0",",,,0",,,,,,,,,,,,
"USC00128290","SPENCER, IN US","39.28385","-86.77048","167.3","2008-10",,,,,"5.6",",0","6",",0","4",",0","0",",0","0",",0","0",",0","6",",0","0",",0","12",",0","0",",0","-3.3",",0,31,+","0",",,0,31,+","0.0",",,0,31,+","21.6",",,0,08,","28.9",",0,12,",,,,,,,,,,,,,,,,,"200.8",",0",,,,,,,,,,,,,,,,,,,,,,,,,,,,,,,,,,,,,,,,,,,,,,,,,,,,,,,,,,,,,,,,,"52.9",",,,0",,,"0",",,,0","12.0",",0","19.4",",,,0","4.7",",,,0",,,,,,,,,,,,
"US1INBW0010","COLUMBUS 3.2 ENE, IN US","39.219953","-85.855474","198.1","2008-10",,,,,,,"6",",N","3",",N",,,"0",",N",,,,,,,,,,,,,,,"0.0",",,N,31,+","20.3",",,N,08,",,,,,,,,,,,,,,,,,,,,,,,,,,,,,,,,,,,,,,,,,,,,,,,,,,,,,,,,,,,,,,,,,,,,,,,,,,,,,,,,,,,,,"54.6",",,,N",,,"0",",,,N",,,,,,,,,,,,,,,,,,
"US1INBW0011","TAYLORSVILLE 0.8 SSW, IN US","39.2849","-85.9526","200.9","2008-10",,,,,,,"6",",N","3",",N",,,"0",",N",,,,,,,,,,,,,,,"0.0",",,N,31,+","23.9",",,N,25,",,,,,,,,,,,,,,,,,,,,,,,,,,,,,,,,,,,,,,,,,,,,,,,,,,,,,,,,,,,,,,,,,,,,,,,,,,,,,,,,,,,,,"49.6",",,,N",,,"0",",,,N",,,,,,,,,,,,,,,,,,
"USC00127083","POSEYVILLE, IN US","38.1655","-87.7852","131.1","2008-10",,,,,,,"4",",0","3",",0","0",",0","0",",0",,,,,,,,,,,,,"0",",,0,31,+","0.0",",,0,31,+","17.8",",,0,24,",,,,,,,,,,,,,,,,,,,,,,,,,,,,,,,,,,,,,,,,,,,,,,,,,,,,,,,,,,,,,,,,,,,,,,,,,,,,,,,,,,,,,"31.7",",,,0",,,"0",",,,0",,,,,,,,,,,,,,,,,,
"US1INBW0008","COLUMBUS 0.4 WSW, IN US","39.209502","-85.920226","193.9","2008-10",,,,,,,"4","5,N","2","5,N",,,"0","5,N",,,,,,,,,,,,,,,"0.0","5,,N,31,+","15.7","5,,N,24,",,,,,,,,,,,,,,,,,,,,,,,,,,,,,,,,,,,,,,,,,,,,,,,,,,,,,,,,,,,,,,,,,,,,,,,,,,,,,,,,,,,,,"32.0","5,,,N",,,"0","5,,,N",,,,,,,,,,,,,,,,,,
"US1INBW0003","COLUMBUS 3.0 N, IN US","39.25386","-85.91451","199.9","2008-10",,,,,,,"6",",N","3",",N",,,"0",",N",,,,,,,,,,,,,,,"0.0",",,N,31,+","18.3",",,N,08,",,,,,,,,,,,,,,,,,,,,,,,,,,,,,,,,,,,,,,,,,,,,,,,,,,,,,,,,,,,,,,,,,,,,,,,,,,,,,,,,,,,,,"51.9",",,,N",,,"0",",,,N",,,,,,,,,,,,,,,,,,
"US1INBW0005","COLUMBUS 0.4 WSW, IN US","39.208082","-85.920156","192.9","2008-10",,,,,,,"6",",N","3",",N",,,"0",",N",,,,,,,,,,,,,,,"0.0",",,N,31,+","24.1",",,N,08,",,,,,,,,,,,,,,,,,,,,,,,,,,,,,,,,,,,,,,,,,,,,,,,,,,,,,,,,,,,,,,,,,,,,,,,,,,,,,,,,,,,,,"58.0",",,,N",,,"0",",,,N",,,,,,,,,,,,,,,,,,
"US1INBW0006","COLUMBUS 8.5 WSW, IN US","39.144146","-86.047801","248.1","2008-10",,,,,,,"10",",N","3",",N",,,"0",",N",,,,,,,,,,,,,,,"0.0",",,N,31,+","22.9",",,N,08,",,,,,,,,,,,,,,,,,,,,,,,,,,,,,,,,,,,,,,,,,,,,,,,,,,,,,,,,,,,,,,,,,,,,,,,,,,,,,,,,,,,,,"57.6",",,,N",,,"0",",,,N",,,,,,,,,,,,,,,,,,
"USC00120331","ATTICA 2 E, IN US","40.2838","-87.1963","221.6","2008-10",,,"356.0","0","7.5",",0","4",",0","3",",0","0",",0","0",",0","0",",0","6",",0","0",",0","10",",0","0",",0","-2.8",",0,29,+","0",",,0,31,+","0.0",",,0,31,+","35.1",",,0,16,","29.4",",0,13,+",,,"234.2","0",,,,,,,,,,,,,"213.5",",0",,,,,,,,,,,,,,,,,,,,,,,,,,,,,,,,,,,,,,,,,,,,,,,,,,,,,,,,,,,,,,,,,"61.5",",,,0",,,"0",",,,0","11.7",",0","18.7",",,,0","4.7",",,,0",,,,,,,,,,,,
"USC00121303","CARMEL 3 E, IN US","39.9617","-86.0585","229.2","2008-10",,,"504.6","0","8.6","3,0","5",",0","4",",0","0",",0","0",",0","0","3,0","6","3,0","0","1,0","12","1,0","0","1,0","-3.3","3,0,30,","0",",,0,31,+","0.0",",,0,31,+","17.5",",,0,16,","30.0","1,0,13,",,,"182.0","0",,,,,,,,,,,,,"170.0","1,0",,,,,,,,,,,,,,,,,,,,,,,,,,,,,,,,,,,,,,,,,,,,,,,,,,,,,,,,,,,,,,,,,"55.9",",,,0",,,"0",",,,0","12.5","3,0","19.3","1,,,0","5.8","3,,,0",,,,,,,"1636.0",",,,0",,,,
"US1INTP0009","OTTERBEIN 2.3 SE, IN US","40.4672","-87.0611","210.9","2008-10",,,,,,,"8",",N","4",",N","0",",N","0",",N",,,,,,,,,,,,,"0",",,N,31,+","0.0",",,N,31,+","25.7",",,N,08,",,,,,,,,,,,,,,,,,,,,,,,,,,,,,,,,,,,,,,,,,,,,,,,,,,,,,,,,,,,,,,,,,,,,,,,,,,,,,,,,,,,,,"51.1",",,,N",,,"0",",,,N",,,,,,,,,,,,,,,,,,
"US1INWY0004","COLUMBIA CITY 0.5 NNE, IN US","41.165392","-85.480755","263.0","2008-10",,,,,,,"13",",N","4",",N",,,"0",",N",,,,,,,,,,,,,,,"0.0",",,N,31,+","24.6",",,N,16,",,,,,,,,,,,,,,,,,,,,,,,,,,,,,,,,,,,,,,,,,,,,,,,,,,,,,,,,,,,,,,,,,,,,,,,,,,,,,,,,,,,,,"64.0",",,,N",,,"0",",,,N",,,,,,,,,,,,,,,,,,
"US1INWY0005","COLUMBIA CITY 6.6 SSE, IN US","41.0759","-85.4217","264.0","2008-10",,,,,,,"8",",N","4",",N",,,"0",",N",,,,,,,,,,,,,,,"0.0",",,N,31,+","21.6",",,N,25,",,,,,,,,,,,,,,,,,,,,,,,,,,,,,,,,,,,,,,,,,,,,,,,,,,,,,,,,,,,,,,,,,,,,,,,,,,,,,,,,,,,,,"51.8",",,,N",,,"0",",,,N",,,,,,,,,,,,,,,,,,
"US1INWY0002","COLUMBIA CITY 0.5 WNW, IN US","41.16144","-85.492931","271.0","2008-10",,,,,,,"9","3,N","3","3,N",,,"0","3,N",,,,,,,,,,,,,,,"0.0","3,,N,31,+","24.6","3,,N,16,",,,,,,,,,,,,,,,,,,,,,,,,,,,,,,,,,,,,,,,,,,,,,,,,,,,,,,,,,,,,,,,,,,,,,,,,,,,,,,,,,,,,,"56.9","3,,,N",,,"0","3,,,N",,,,,,,,,,,,,,,,,,
"US1INWY0001","COLUMBIA CITY 6.9 N, IN US","41.25773","-85.50601","281.9","2008-10",,,,,,,"9","3,N","4","3,N",,,"0","3,N",,,,,,,,,,,,,,,"0.0","3,,N,31,+","22.9","3,,N,25,",,,,,,,,,,,,,,,,,,,,,,,,,,,,,,,,,,,,,,,,,,,,,,,,,,,,,,,,,,,,,,,,,,,,,,,,,,,,,,,,,,,,,"51.4","3,,,N",,,"0","3,,,N",,,,,,,,,,,,,,,,,,
"US1INHY0005","NEW CASTLE 4.6 SSE, IN US","39.860041","-85.331107","328.9","2008-10",,,,,,,"7",",N","4",",N",,,"0",",N",,,,,,,,,,,,,,,"0.0",",,N,31,+","24.1",",,N,25,",,,,,,,,,,,,,,,,,,,,,,,,,,,,,,,,,,,,,,,,,,,,,,,,,,,,,,,,,,,,,,,,,,,,,,,,,,,,,,,,,,,,,"47.7",",,,N",,,"0",",,,N",,,,,,,,,,,,,,,,,,
"US1INHY0001","LEWISVILLE 1.8 ENE, IN US","39.82065","-85.3244","335.0","2008-10",,,,,,,"6",",N","4",",N",,,"0",",N",,,,,,,,,,,,,,,"0.0",",,N,31,+","20.6",",,N,25,",,,,,,,,,,,,,,,,,,,,,,,,,,,,,,,,,,,,,,,,,,,,,,,,,,,,,,,,,,,,,,,,,,,,,,,,,,,,,,,,,,,,,"41.5",",,,N",,,"0",",,,N",,,,,,,,,,,,,,,,,,
"US1INWK0012","BOONVILLE 1.4 N WBNL RADIO, IN US","38.064934","-87.273925","142.0","2008-10",,,,,,,"5",",N","3",",N",,,"0",",N",,,,,,,,,,,,,,,"0.0",",,N,31,+","35.8",",,N,08,",,,,,,,,,,,,,,,,,,,,,,,,,,,,,,,,,,,,,,,,,,,,,,,,,,,,,,,,,,,,,,,,,,,,,,,,,,,,,,,,,,,,,"56.1",",,,N",,,"0",",,,N",,,,,,,,,,,,,,,,,,
"US1INWK0014","CHANDLER 4.4 WSW, IN US","38.027395","-87.447397","114.9","2008-10",,,,,,,"6",",N","3",",N",,,"0",",N",,,,,,,,,,,,,,,"0.0",",,N,31,+","28.4",",,N,08,",,,,,,,,,,,,,,,,,,,,,,,,,,,,,,,,,,,,,,,,,,,,,,,,,,,,,,,,,,,,,,,,,,,,,,,,,,,,,,,,,,,,,"54.9",",,,N",,,"0",",,,N",,,,,,,,,,,,,,,,,,
"US1INWK0016","NEWBURGH 1.5 NE, IN US","37.961542","-87.38372","131.1","2008-10",,,,,,,"3",",N","3",",N",,,"0",",N",,,,,,,,,,,,,,,"0.0",",,N,31,+","38.1",",,N,08,",,,,,,,,,,,,,,,,,,,,,,,,,,,,,,,,,,,,,,,,,,,,,,,,,,,,,,,,,,,,,,,,,,,,,,,,,,,,,,,,,,,,,"56.4",",,,N",,,"0",",,,N",,,,,,,,,,,,,,,,,,
"US1INTP0015","LAFAYETTE 3.0 NE, IN US","40.439487","-86.826884","192.9","2008-10",,,,,,,,,,,,,,,,,,,,,,,,,,,,,,,,,,,,,,,,,,,,,,,,,,,,,,,,,,,,,,,,,,,,,,,,,,,,,,,,,,,,,,,,,,,,,,,,,,,,,,,,,,,,,,,,,,,,,"64.8","2,a,,N",,,,,,,,,,,,,,,,,,,,,,
"US1INWK0015","ELBERFELD 0.6 S, IN US","38.151985","-87.447085","128.9","2008-10",,,,,,,"2",",N","2",",N",,,"0",",N",,,,,,,,,,,,,,,"0.0",",,N,31,+","22.1",",,N,08,",,,,,,,,,,,,,,,,,,,,,,,,,,,,,,,,,,,,,,,,,,,,,,,,,,,,,,,,,,,,,,,,,,,,,,,,,,,,,,,,,,,,,"38.1",",,,N",,,"0",",,,N",,,,,,,,,,,,,,,,,,
"US1INTP0017","LAFAYETTE 5.8 ENE, IN US","40.45449","-86.776024","199.0","2008-10",,,,,,,"8","1,N","4","1,N",,,"0","2,N",,,,,,,,,,,,,,,"0.0","2,,N,31,+","23.1","1,,N,08,",,,,,,,,,,,,,,,,,,,,,,,,,,,,,,,,,,,,,,,,,,,,,,,,,,,,,,,,,,,,,,,,,,,,,,,,,,,,,,,,,,,,,"59.1","1,,,N",,,"0","2,,,N",,,,,,,,,,,,,,,,,,
"USR0000ITPL","TIPSAW LAKE INDIANA, IN US","38.125","-86.625","218.8","2008-10",,,,,"20.2",",U",,,,,,,,,"0",",U","3",",U","0",",U","16",",U","0",",U","-2.2",",U,29,",,,,,,,"30.0",",U,12,",,,"152.6","U",,,,,,,,,,,,,"149.3",",U",,,,,,,,,,,,,,,,,,,,,,,,,,,,,,,,,,,,,,,,,,,,,,,,,,,,,,,,,,,,,,,,,,,,,,,"14.2",",U","21.7",",,,U","6.6",",,,U",,,,,,,,,,,,
"US1INHR0001","ELIZABETH 1.4 ESE, IN US","38.115801","-85.952501","243.8","2008-10",,,,,,,"7","1,N","4","1,N",,,"0","1,N",,,,,,,,,,,,,,,"0.0","1,,N,31,+","37.1","1,,N,08,",,,,,,,,,,,,,,,,,,,,,,,,,,,,,,,,,,,,,,,,,,,,,,,,,,,,,,,,,,,,,,,,,,,,,,,,,,,,,,,,,,,,,"77.6","1,,,N",,,"0","1,,,N",,,,,,,,,,,,,,,,,,
"USC00125923","MORRISTOWN 2 SE, IN US","39.6484","-85.678","269.7","2008-10",,,,,,,"5",",0","4",",0","0",",0","0",",0",,,,,,,,,,,,,"0",",,0,31,+","0.0",",,0,31,+","18.8",",,0,25,",,,,,,,,,,,,,,,,,,,,,,,,,,,,,,,,,,,,,,,,,,,,,,,,,,,,,,,,,,,,,,,,,,,,,,,,,,,,,,,,,,,,,"41.2",",,,0",,,"0",",,,0",,,,,,,,,,,,,,,,,,
"USC00124832","LAPEL 4 S, IN US","40.0113","-85.8436","262.1","2008-10",,,,,,,"7",",0","4",",0","0",",0","0",",0",,,,,,,,,,,,,"0",",,0,31,+","0.0",",,0,31,+","15.0",",,0,08,",,,,,,,,,,,,,,,,,,,,,,,,,,,,,,,,,,,,,,,,,,,,,,,,,,,,,,,,,,,,,,,,,,,,,,,,,,,,,,,,,,,,,"49.4",",,,0",,,"0",",,,0",,,,,,,,,,,,,,,,,,
"USC00121326","CASTLETON 2 S, IN US","39.8801","-86.0514","251.2","2008-10",,,,,,,"6",",0","5",",0","0",",0","0",",0",,,,,,,,,,,,,"0",",,0,31,+","0.0",",T,0,27,","20.1",",,0,24,",,,,,,,,,,,,,,,,,,,,,,,,,,,,,,,,,,,,,,,,,,,,,,,,,,,,,,,,,,,,,,,,,,,,,,,,,,,,,,,,,,,,,"53.3",",,,0",,,"0",",T,,0",,,,,,,,,,,,,,,,,,
"USC00124837","LAPORTE, IN US","41.6116","-86.7297","246.6","2008-10",,,"401.9","0","5.9",",0","16",",0","5",",0","0",",0","0",",0","0",",0","2",",0","0",",0","6",",0","0",",0","-1.1",",0,30,","0",",T,0,28,","0.0",",T,0,28,+","30.5",",,0,07,","28.9",",0,12,",,,"250.9","0",,,,,,,,,,,,,"225.4",",0",,,,,,,,,,,,,,,,,,,,,,,,,,,,,,,,,,,,,,,,,,,,,,,,,,,,,,,,,,,,,,,,,"104.2",",,,0",,,"0",",T,,0","11.3",",0","16.4",",,,0","6.2",",,,0",,,,,,,,,,,,
"US1INHR0005","MILLTOWN 5.7 SSE, IN US","38.262595","-86.253962","193.9","2008-10",,,,,,,,,,,,,"0","5,N",,,,,,,,,,,,,,,"0.0","5,,N,31,+",,,,,,,,,,,,,,,,,,,,,,,,,,,,,,,,,,,,,,,,,,,,,,,,,,,,,,,,,,,,,,,,,,,,,,,,,,,,,,,,,,,,,,,,,,,"0","5,,,N",,,,,,,,,,,,,,,,,,
"US1INWK0003","CHANDLER 1.1 S, IN US","38.02633","-87.36802","146.0","2008-10",,,,,,,"5",",N","4",",N",,,"0",",N",,,,,,,,,,,,,,,"0.0",",,N,31,+","36.6",",,N,08,",,,,,,,,,,,,,,,,,,,,,,,,,,,,,,,,,,,,,,,,,,,,,,,,,,,,,,,,,,,,,,,,,,,,,,,,,,,,,,,,,,,,,"60.5",",,,N",,,"0",",,,N",,,,,,,,,,,,,,,,,,
"USC00124715","LAFAYETTE 8 S, IN US","40.2963","-86.9027","223.1","2008-10",,,"414.3","0","8.6","1,0","6",",0","4",",0","0",",0","0",",0","0","1,0","4","1,0","0",",0","11",",0","0",",0","-3.3","1,0,29,","0",",,0,31,+","0.0",",,0,31,+","24.9",",,0,15,","29.4",",0,13,",,,"211.4","0",,,,,,,,,,,,,"195.3",",0",,,,,,,,,,,,,,,,,,,,,,,,,,,,,,,,,,,,,,,,,,,,,,,,,,,,,,,,,,,,,,,,,"59.4",",,,0",,,"0",",,,0","12.1","1,0","18.7",",,,0","5.5","1,,,0",,,,,,,,,,,,
"US1INWK0002","NEWBURGH 1.7 ENE, IN US","37.954201","-87.37408","143.0","2008-10",,,,,,,"3","5,N","1","5,N",,,"0","5,N",,,,,,,,,,,,,,,"0.0","5,,N,31,+","35.1","5,,N,08,",,,,,,,,,,,,,,,,,,,,,,,,,,,,,,,,,,,,,,,,,,,,,,,,,,,,,,,,,,,,,,,,,,,,,,,,,,,,,,,,,,,,,"54.0","1,a,,N",,,"0","5,,,N",,,,,,,,,,,,,,,,,,
"US1INWK0005","BOONVILLE 2.4 N, IN US","38.080463","-87.275781","143.0","2008-10",,,,,,,"5",",N","4",",N",,,"0",",N",,,,,,,,,,,,,,,"0.0",",,N,31,+","38.1",",,N,08,",,,,,,,,,,,,,,,,,,,,,,,,,,,,,,,,,,,,,,,,,,,,,,,,,,,,,,,,,,,,,,,,,,,,,,,,,,,,,,,,,,,,,"57.7",",,,N",,,"0",",,,N",,,,,,,,,,,,,,,,,,
"US1INWK0006","NEWBURGH 4.7 NNE, IN US","38.006875","-87.364604","132.9","2008-10",,,,,,,"6",",N","4",",N",,,"0",",N",,,,,,,,,,,,,,,"0.0",",,N,31,+","33.3",",,N,08,",,,,,,,,,,,,,,,,,,,,,,,,,,,,,,,,,,,,,,,,,,,,,,,,,,,,,,,,,,,,,,,,,,,,,,,,,,,,,,,,,,,,,"55.4",",,,N",,,"0",",,,N",,,,,,,,,,,,,,,,,,
"USC00127398","RIDGEVILLE 3 SSE, IN US","40.2552","-84.9958","315.5","2008-10",,,,,,,"4",",0","2",",0","0",",0","0",",0",,,,,,,,,,,,,"0",",,0,31,+","0.0",",,0,31,+","22.9",",,0,16,",,,,,,,,,,,,,,,,,,,,,,,,,,,,,,,,,,,,,,,,,,,,,,,,,,,,,,,,,,,,,,,,,,,,,,,,,,,,,,,,,,,,,"42.5",",,,0",,,"0",",,,0",,,,,,,,,,,,,,,,,,
"USC00122825","FARMLAND 5 NNW, IN US","40.2538","-85.1484","294.1","2008-10",,,"330.8","0","4.7",",0","7",",0","3",",0","0",",0","0",",0","0",",0","11",",0","0",",0","10",",0","0",",0","-5.6",",0,31,+","0",",,0,31,+","0.0",",,0,31,+","21.1",",,0,25,","30.0",",0,13,",,,"276.3","0","17.8",",,,0,3,2","17.2",",,,0,3,3","18.3",",,,0,5,2",,,,,,,"236.9",",0","21.1",",,,0,3,2","19.4",",,,0,3,3","21.7",",,,0,5,2",,,,,,,"3.9",",,,0,3,2","3.9",",,,0,3,3","5.6",",,,0,5,2",,,,,,,"5.6",",,,0,3,2","5.6",",,,0,3,3","7.2",",,,0,5,2",,,,,,,"11.6",",,,0,3,2","12.2",",,,0,3,3","12.4",",,,0,5,2",,,,,,,,,"16.0",",,,0,3,2","14.1",",,,0,3,3","16.4",",,,0,5,2",,,,,,,,,"55.6",",,,0",,,"0",",,,0","10.8",",0","18.6",",,,0","3.1",",,,0",,,,,,,,,,,,
