"STATION","NAME","LATITUDE","LONGITUDE","ELEVATION","DATE","AWND","AWND_ATTRIBUTES","CDSD","CDSD_ATTRIBUTES","CLDD","CLDD_ATTRIBUTES","DP01","DP01_ATTRIBUTES","DP10","DP10_ATTRIBUTES","DSND","DSND_ATTRIBUTES","DSNW","DSNW_ATTRIBUTES","DT00","DT00_ATTRIBUTES","DT32","DT32_ATTRIBUTES","DX32","DX32_ATTRIBUTES","DX70","DX70_ATTRIBUTES","DX90","DX90_ATTRIBUTES","EMNT","EMNT_ATTRIBUTES","EMSD","EMSD_ATTRIBUTES","EMSN","EMSN_ATTRIBUTES","EMXP","EMXP_ATTRIBUTES","EMXT","EMXT_ATTRIBUTES","EVAP","EVAP_ATTRIBUTES","HDSD","HDSD_ATTRIBUTES","HN01","HN01_ATTRIBUTES","HN02","HN02_ATTRIBUTES","HN03","HN03_ATTRIBUTES","HN04","HN04_ATTRIBUTES","HN05","HN05_ATTRIBUTES","HN06","HN06_ATTRIBUTES","HTDD","HTDD_ATTRIBUTES","HX01","HX01_ATTRIBUTES","HX02","HX02_ATTRIBUTES","HX03","HX03_ATTRIBUTES","HX04","HX04_ATTRIBUTES","HX05","HX05_ATTRIBUTES","HX06","HX06_ATTRIBUTES","LN01","LN01_ATTRIBUTES","LN02","LN02_ATTRIBUTES","LN03","LN03_ATTRIBUTES","LN04","LN04_ATTRIBUTES","LN05","LN05_ATTRIBUTES","LN06","LN06_ATTRIBUTES","LX01","LX01_ATTRIBUTES","LX02","LX02_ATTRIBUTES","LX03","LX03_ATTRIBUTES","LX04","LX04_ATTRIBUTES","LX05","LX05_ATTRIBUTES","LX06","LX06_ATTRIBUTES","MN01","MN01_ATTRIBUTES","MN02","MN02_ATTRIBUTES","MN03","MN03_ATTRIBUTES","MN04","MN04_ATTRIBUTES","MN05","MN05_ATTRIBUTES","MN06","MN06_ATTRIBUTES","MNPN","MNPN_ATTRIBUTES","MX01","MX01_ATTRIBUTES","MX02","MX02_ATTRIBUTES","MX03","MX03_ATTRIBUTES","MX04","MX04_ATTRIBUTES","MX05","MX05_ATTRIBUTES","MX06","MX06_ATTRIBUTES","MXPN","MXPN_ATTRIBUTES","PRCP","PRCP_ATTRIBUTES","PSUN","PSUN_ATTRIBUTES","SNOW","SNOW_ATTRIBUTES","TAVG","TAVG_ATTRIBUTES","TMAX","TMAX_ATTRIBUTES","TMIN","TMIN_ATTRIBUTES","TSUN","TSUN_ATTRIBUTES","WDF2","WDF2_ATTRIBUTES","WDF5","WDF5_ATTRIBUTES","WDMV","WDMV_ATTRIBUTES","WSF2","WSF2_ATTRIBUTES","WSF5","WSF5_ATTRIBUTES"
"USC00122184","DEPUTY 1 WNW, IN US","38.7997","-85.6724","193.5","2009-10",,,,,,,"11",",0","9",",0","0",",0","0",",0",,,,,,,,,,,,,"0",",,0,31,+","0.0",",,0,31,+","64.3",",,0,09,",,,,,,,,,,,,,,,,,,,,,,,,,,,,,,,,,,,,,,,,,,,,,,,,,,,,,,,,,,,,,,,,,,,,,,,,,,,,,,,,,,,,,"175.7",",,,0",,,"0",",,,0",,,,,,,,,,,,,,,,,,
"USC00126420","NORTH MANCHESTER WWTP, IN US","40.9936","-85.7749","231.6","2009-10",,,"272.0","0","0.0",",0","16",",0","10",",0","0",",0","0",",0","0",",0","2",",0","0",",0","1",",0","0",",0","-1.7",",0,18,","0",",,0,31,+","0.0",",,0,31,+","21.6",",,0,31,","21.7",",0,22,",,,"340.0","0",,,,,,,,,,,,,"287.0",",0",,,,,,,,,,,,,,,,,,,,,,,,,,,,,,,,,,,,,,,,,,,,,,,,,,,,,,,,,,,,,,,,,"142.8",",,,0",,,"0",",,,0","9.1",",0","14.0",",,,0","4.1",",,,0",,,,,,,,,,,,
"US1INOH0002","RISING SUN 4.1 WSW, IN US","38.937194","-84.931548","168.9","2009-10",,,,,,,"9","4,N","9","4,N",,,,,,,,,,,,,,,,,,,,,"64.8","4,,N,09,",,,,,,,,,,,,,,,,,,,,,,,,,,,,,,,,,,,,,,,,,,,,,,,,,,,,,,,,,,,,,,,,,,,,,,,,,,,,,,,,,,,,,"162.0","4,,,N",,,,,,,,,,,,,,,,,,,,,,
"US1INML0006","PLYMOUTH 2.5 WSW, IN US","41.329704","-86.356804","248.1","2009-10",,,,,,,"20",",N","12",",N",,,,,,,,,,,,,,,,,,,,,"26.7",",,N,31,",,,,,,,,,,,,,,,,,,,,,,,,,,,,,,,,,,,,,,,,,,,,,,,,,,,,,,,,,,,,,,,,,,,,,,,,,,,,,,,,,,,,,"150.7",",,,N",,,,,,,,,,,,,,,,,,,,,,
"US1INFD0002","GALENA 4.3 ENE, IN US","38.380331","-85.870439","285.0","2009-10",,,,,,,"13",",N","10",",N",,,,,,,,,,,,,,,,,,,,,"114.6",",,N,09,",,,,,,,,,,,,,,,,,,,,,,,,,,,,,,,,,,,,,,,,,,,,,,,,,,,,,,,,,,,,,,,,,,,,,,,,,,,,,,,,,,,,,"260.2",",,,N",,,,,,,,,,,,,,,,,,,,,,
"US1INML0003","PLYMOUTH 1.1 SSE, IN US","41.331903","-86.307406","259.1","2009-10",,,,,,,"17","2,N","12","2,N","0","2,N","0","2,N",,,,,,,,,,,,,"0","2,,N,31,+","0.0","2,,N,31,+","40.6","2,,N,23,",,,,,,,,,,,,,,,,,,,,,,,,,,,,,,,,,,,,,,,,,,,,,,,,,,,,,,,,,,,,,,,,,,,,,,,,,,,,,,,,,,,,,"167.8","2,,,N",,,"0","2,,,N",,,,,,,,,,,,,,,,,,
"USC00128723","TERRE HAUTE INDIANA STATE, IN US","39.4708","-87.408","154.5","2009-10",,,,,"0.0","4,0","14","3,0","12","3,0","0",",0","0",",0","0","3,0","2","3,0","0","4,0","7","4,0","0","4,0","-1.1","3,0,18,","0",",,0,31,+","0.0",",,0,31,+","58.4","3,,0,09,","22.8","4,0,06,",,,,,"12.2","5,,,0,3,2","15.0","5,,,0,5,2",,,,,,,,,"177.6","4,0","20.0","5,,,0,3,2",,,,,,,,,,,"4.4","5,,,0,3,2","5.0","5,,,0,5,2",,,,,,,,,"8.3","5,,,0,3,2",,,,,,,,,,,"8.9","5,,,0,3,2","11.0","5,,,0,5,2",,,,,,,,,,,"13.3","5,,,0,3,2",,,,,,,,,,,,,"175.3","3,,,0",,,"0",",,,0","11.6","4,0","17.1","4,,,0","6.2","3,,,0",,,,,,,,,,,,
"US1INFD0004","NEW ALBANY 4.4 NNE, IN US","38.36412","-85.798177","152.1","2009-10",,,,,,,"13",",N","10",",N",,,,,,,,,,,,,,,,,,,,,"99.8",",,N,09,",,,,,,,,,,,,,,,,,,,,,,,,,,,,,,,,,,,,,,,,,,,,,,,,,,,,,,,,,,,,,,,,,,,,,,,,,,,,,,,,,,,,,"243.7",",,,N",,,,,,,,,,,,,,,,,,,,,,
"USC00124244","INDIANA DUNES NATIONAL PARK, IN US","41.63178","-87.08803","208.2","2009-10",,,"284.4","0","0.0",",0","21",",0","14",",0","0",",0","0",",0","0",",0","0",",0","0",",0","1",",0","0",",0","1.1",",0,18,","0",",,0,31,+","0.0",",,0,31,+","63.0",",,0,30,","21.1",",0,22,",,,"321.2","0",,,,,,,,,,,,,"266.5",",0",,,,,,,,,,,,,,,,,,,,,,,,,,,,,,,,,,,,,,,,,,,,,,,,,,,,,,,,,,,,,,,,,"213.9",",,,0",,,"0",",,,0","9.7",",0","13.6",",,,0","5.9",",,,0",,,,,,,,,,,,
"US1INML0001","BREMEN 2.0 WNW, IN US","41.453775","-86.192394","251.2","2009-10",,,,,,,"14",",N","12",",N",,,,,,,,,,,,,,,,,,,,,"36.8",",,N,23,",,,,,,,,,,,,,,,,,,,,,,,,,,,,,,,,,,,,,,,,,,,,,,,,,,,,,,,,,,,,,,,,,,,,,,,,,,,,,,,,,,,,,"155.8",",,,N",,,,,,,,,,,,,,,,,,,,,,
"US1INML0002","WALKERTON 2.7 SSE, IN US","41.430196","-86.454908","221.0","2009-10",,,,,,,"19",",N","11",",N","0",",N","0",",N",,,,,,,,,,,,,"0",",,N,31,+","0.0",",,N,31,+","23.4",",,N,31,",,,,,,,,,,,,,,,,,,,,,,,,,,,,,,,,,,,,,,,,,,,,,,,,,,,,,,,,,,,,,,,,,,,,,,,,,,,,,,,,,,,,,"114.2",",,,N",,,"0",",,,N",,,,,,,,,,,,,,,,,,
"US1INGB0009","FRANCISCO 0.1 SE, IN US","38.332965","-87.447337","139.3","2009-10",,,,,,,"13",",N","10",",N",,,,,,,,,,,,,,,,,,,,,"69.6",",,N,09,",,,,,,,,,,,,,,,,,,,,,,,,,,,,,,,,,,,,,,,,,,,,,,,,,,,,,,,,,,,,,,,,,,,,,,,,,,,,,,,,,,,,,"213.0",",,,N",,,,,,,,,,,,,,,,,,,,,,
"USC00125337","MARION 2 N, IN US","40.58","-85.6586","240.8","2009-10",,,"372.6","0","0.0",",0","14",",0","8",",0","0",",0","0",",0","0",",0","3",",0","0",",0","2",",0","0",",0","-2.2",",0,19,+","0",",,0,31,+","0.0",",,0,31,+","38.6",",,0,09,","21.1",",0,31,+",,,"302.8","0",,,,,,,,,,,,,"265.8",",0",,,,,,,,,,,,,,,,,,,,,,,,,,,,,,,,,,,,,,,,,,,,,,,,,,,,,,,,,,,,,,,,,"175.8",",,,0",,,"0",",,,0","9.8",",0","14.7",",,,0","4.8",",,,0",,,,,,,,,,,,
"USC00128967","J.T. MYERS LOCKS AND DAM, IN US","37.7952","-87.993","103.6","2009-10",,,"767.2","0","1.1",",0","13",",0","10",",0","0",",0","0",",0","0",",0","1",",0","0",",0","5",",0","0",",0","-0.6",",0,18,","0",",,0,31,+","0.0",",,0,31,+","78.7",",,0,08,","22.8",",0,30,+",,,"176.1","0",,,,,,,,,,,,,"166.7",",0",,,,,,,,,,,,,,,,,,,,,,,,,,,,,,,,,,,,,,,,,,,,,,,,,,,,,,,,,,,,,,,,,"214.9",",,,0",,,"0",",,,0","13.0",",0","17.4",",,,0","8.6",",,,0",,,,,,,,,,,,
"USC00124249","INDIANAPOLIS EAGLE CREEK 4 NNE, IN US","39.90746","-86.28911","249.3","2009-10",,,,,,,"12","3,0","8","3,0","0","3,0","0","3,0",,,,,,,,,,,,,"0","3,,0,31,+","0.0","3,,0,31,+","37.1","3,,0,23,",,,,,,,,,,,,,,,,,,,,,,,,,,,,,,,,,,,,,,,,,,,,,,,,,,,,,,,,,,,,,,,,,,,,,,,,,,,,,,,,,,,,,"124.8","3,,,0",,,"0","3,,,0",,,,,,,,,,,,,,,,,,
"USC00127999","SHELBYVILLE SEWAGE PLANT, IN US","39.5282","-85.7914","229.2","2009-10",,,"384.6","0","0.0",",0","14",",0","8",",0","0",",0","0",",0","0",",0","3",",0","0",",0","2",",0","0",",0","-2.2",",0,19,+","0",",,0,31,+","0.0",",,0,31,+","52.1",",,0,02,","23.3",",0,31,",,,"278.0","0",,,,,,,,,,,,,"247.8",",0",,,,,,,,,,,,,,,,,,,,,,,,,,,,,,,,,,,,,,,,,,,,,,,,,,,,,,,,,,,,,,,,,"158.5",",,,0",,,"0",",,,0","10.3",",0","15.6",",,,0","5.1",",,,0",,,,,,,,,,,,
"US1INGB0008","HAZLETON 2.5 S, IN US","38.45263","-87.5336","145.4","2009-10",,,,,,,"16",",N","10",",N",,,,,,,,,,,,,,,,,,,,,"78.0",",,N,09,",,,,,,,,,,,,,,,,,,,,,,,,,,,,,,,,,,,,,,,,,,,,,,,,,,,,,,,,,,,,,,,,,,,,,,,,,,,,,,,,,,,,,"204.9",",,,N",,,,,,,,,,,,,,,,,,,,,,
"US1INBL0007","HARTFORD CITY 4.8 NW, IN US","40.5069","-85.4275","270.1","2009-10",,,,,,,"15",",N","8",",N",,,,,,,,,,,,,,,,,,,,,"32.0",",,N,09,",,,,,,,,,,,,,,,,,,,,,,,,,,,,,,,,,,,,,,,,,,,,,,,,,,,,,,,,,,,,,,,,,,,,,,,,,,,,,,,,,,,,,"153.0",",,,N",,,,,,,,,,,,,,,,,,,,,,
"US1INWN0004","CENTERVILLE 0.3 N, IN US","39.821065","-84.996339","310.0","2009-10",,,,,,,"14","1,N","10","1,N",,,,,,,,,,,,,,,,,,,,,"33.0","1,,N,02,",,,,,,,,,,,,,,,,,,,,,,,,,,,,,,,,,,,,,,,,,,,,,,,,,,,,,,,,,,,,,,,,,,,,,,,,,,,,,,,,,,,,,"133.4","1,,,N",,,,,,,,,,,,,,,,,,,,,,
"US1INWN0002","RICHMOND 0.9 SE, IN US","39.820729","-84.872677","315.2","2009-10",,,,,,,"14","1,N","10","1,N",,,,,,,,,,,,,,,,,,,,,"39.4","1,,N,02,",,,,,,,,,,,,,,,,,,,,,,,,,,,,,,,,,,,,,,,,,,,,,,,,,,,,,,,,,,,,,,,,,,,,,,,,,,,,,,,,,,,,,"155.1","1,,,N",,,,,,,,,,,,,,,,,,,,,,
"USC00124372","JASPER, IN US","38.3856","-86.9406","137.2","2009-10",,,,,,,"13",",0","10",",0","0",",0","0",",0",,,,,,,,,,,,,"0",",,0,31,+","0.0",",,0,31,+","60.2",",,0,08,",,,,,,,,,,,,,,,,,,,,,,,,,,,,,,,,,,,,,,,,,,,,,,,,,,,,,,,,,,,,,,,,,,,,,,,,,,,,,,,,,,,,,"223.9",",,,0",,,"0",",,,0",,,,,,,,,,,,,,,,,,
"US1INOW0011","SPENCER 6.5 SE, IN US","39.2292","-86.688009","258.8","2009-10",,,,,,,"14",",N","10",",N",,,,,,,,,,,,,,,,,,,,,"68.8",",,N,09,",,,,,,,,,,,,,,,,,,,,,,,,,,,,,,,,,,,,,,,,,,,,,,,,,,,,,,,,,,,,,,,,,,,,,,,,,,,,,,,,,,,,,"203.9",",,,N",,,,,,,,,,,,,,,,,,,,,,
"USC00127646","RUSHVILLE, IN US","39.6042","-85.4532","289.0","2009-10",,,,,"0.0","4,0","11","4,0","7","4,0","0","4,0","0","4,0","0","4,0","2","4,0","0","4,0","1","4,0","0","4,0","-2.8","4,0,19,","0","4,,0,31,+","0.0","4,,0,31,+","36.8","4,,0,02,","24.4","4,0,31,",,,"255.8","0",,,,,,,,,,,,,"222.0","4,0",,,,,,,,,,,,,,,,,,,,,,,,,,,,,,,,,,,,,,,,,,,,,,,,,,,,,,,,,,,,,,,,,"136.7","4,,,0",,,"0","4,,,0","10.1","4,0","15.4","4,,,0","4.9","4,,,0",,,,,,,,,,,,
"USC00126435","NORTH VERNON 2 ESE, IN US","39.00098","-85.59956","219.2","2009-10",,,"484.9","0","3.1",",0","15",",0","9",",0","0",",0","0",",0","0",",0","2",",0","0",",0","5",",0","0",",0","-2.2",",0,18,","0",",,0,31,+","0.0",",,0,31,+","33.5",",,0,09,","26.1",",0,31,+",,,"223.4","0",,,,,,,,,,,,,"199.9",",0",,,,,,,,,,,,,,,,,,,,,,,,,,,,,,,,,,,,,,,,,,,,,,,,,,,,,,,,,,,,,,,,,"173.1",",,,0",,,"0",",,,0","12.0",",0","17.6",",,,0","6.4",",,,0",,,,,,,,,,,,
"USC00124497","KENDALLVILLE, IN US","41.4499","-85.2272","301.8","2009-10",,,,,,,"15",",0","7",",0","0",",0","0",",0",,,,,,,,,,,,,"0",",,0,31,+","0.0",",,0,31,+","20.1",",,0,02,",,,,,,,,,,,,,,,,,,,,,,,,,,,,,,,,,,,,,,,,,,,,,,,,,,,,,,,,,,,,,,,,,,,,,,,,,,,,,,,,,,,,,"101.5",",,,0",,,"0",",,,0",,,,,,,,,,,,,,,,,,
"USC00127522","ROCKVILLE, IN US","39.7594","-87.2269","210.0","2009-10",,,"486.9","0","0.0",",0","16",",0","12",",0","0",",0","0",",0","0",",0","2",",0","0",",0","0",",0","0",",0","-1.7",",0,18,","0",",,0,31,+","0.0",",,0,31,+","39.4",",,0,23,","20.0",",0,22,+",,,"246.2","0",,,,,,,,,,,,,"221.8",",0",,,,,,,,,,,,,,,,,,,,,,,,,,,,,,,,,,,,,,,,,,,,,,,,,,,,,,,,,,,,,,,,,"189.7",",,,0",,,"0",",,,0","11.2",",0","15.8",",,,0","6.5",",,,0",,,,,,,,,,,,
"USC00126437","VERNON 1 ENE, IN US","38.9886","-85.5859","228.6","2009-10",,,,,,,"13",",0","9",",0","0",",0","0",",0",,,,,,,,,,,,,"0",",,0,31,+","0.0",",,0,31,+","46.7",",,0,09,",,,,,,,,,,,,,,,,,,,,,,,,,,,,,,,,,,,,,,,,,,,,,,,,,,,,,,,,,,,,,,,,,,,,,,,,,,,,,,,,,,,,,"174.5",",,,0",,,"0",",,,0",,,,,,,,,,,,,,,,,,
"US1INPM0003","FILLMORE 3.1 NNW, IN US","39.714199","-86.768738","246.0","2009-10",,,,,,,"13","3,N","9","3,N",,,,,,,,,,,,,,,,,,,,,"41.7","3,,N,09,",,,,,,,,,,,,,,,,,,,,,,,,,,,,,,,,,,,,,,,,,,,,,,,,,,,,,,,,,,,,,,,,,,,,,,,,,,,,,,,,,,,,,"175.4","3,,,N",,,,,,,,,,,,,,,,,,,,,,
"US1INPM0008","BAINBRIDGE 5.7 W, IN US","39.762215","-86.919097","260.3","2009-10",,,,,,,"15","1,N","10","1,N",,,,,,,,,,,,,,,,,,,,,"47.2","1,,N,09,",,,,,,,,,,,,,,,,,,,,,,,,,,,,,,,,,,,,,,,,,,,,,,,,,,,,,,,,,,,,,,,,,,,,,,,,,,,,,,,,,,,,,"178.3","1,,,N",,,,,,,,,,,,,,,,,,,,,,
"US1INDV0006","WASHINGTON 2.6 SSW, IN US","38.621697","-87.182917","143.0","2009-10",,,,,,,"15",",N","9",",N",,,,,,,,,,,,,,,,,,,,,"84.1",",,N,09,",,,,,,,,,,,,,,,,,,,,,,,,,,,,,,,,,,,,,,,,,,,,,,,,,,,,,,,,,,,,,,,,,,,,,,,,,,,,,,,,,,,,,"230.2",",,,N",,,,,,,,,,,,,,,,,,,,,,
"US1INOW0002","SPENCER 4.4 E, IN US","39.29467","-86.68782","228.9","2009-10",,,,,,,"14","1,N","9","1,N",,,,,,,,,,,,,,,,,,,,,"58.2","1,,N,09,",,,,,,,,,,,,,,,,,,,,,,,,,,,,,,,,,,,,,,,,,,,,,,,,,,,,,,,,,,,,,,,,,,,,,,,,,,,,,,,,,,,,,"198.6","1,,,N",,,,,,,,,,,,,,,,,,,,,,
"US1INOW0006","GOSPORT 4.0 WSW, IN US","39.32","-86.73","177.1","2009-10",,,,,,,"13","3,N","8","3,N",,,,,,,,,,,,,,,,,,,,,"50.3","3,,N,09,",,,,,,,,,,,,,,,,,,,,,,,,,,,,,,,,,,,,,,,,,,,,,,,,,,,,,,,,,,,,,,,,,,,,,,,,,,,,,,,,,,,,,"187.6",",a,,N",,,,,,,,,,,,,,,,,,,,,,
"USC00125237","MADISON SEWAGE PLANT, IN US","38.7369","-85.3941","140.2","2009-10",,,"577.8","0","3.1","1,0","12",",0","11",",0","0",",0","0",",0","0","1,0","1","1,0","0",",0","7",",0","0",",0","-0.6","1,0,18,","0",",,0,31,+","0.0",",,0,31,+","61.2",",,0,09,","27.2",",0,30,",,,"189.8","0",,,,,,,,,,,,,"178.7",",0",,,,,,,,,,,,,,,,,,,,,,,,,,,,,,,,,,,,,,,,,,,,,,,,,,,,,,,,,,,,,,,,,"192.7",",,,0",,,"0",",,,0","12.4","1,0","17.6",",,,0","7.1","1,,,0",,,,,,,,,,,,
"US1INOW0009","SPENCER 7.0 S, IN US","39.185767","-86.778233","235.9","2009-10",,,,,,,"12",",N","10",",N",,,,,,,,,,,,,,,,,,,,,"68.6",",,N,09,",,,,,,,,,,,,,,,,,,,,,,,,,,,,,,,,,,,,,,,,,,,,,,,,,,,,,,,,,,,,,,,,,,,,,,,,,,,,,,,,,,,,,"197.5",",,,N",,,,,,,,,,,,,,,,,,,,,,
"USC00125117","LOGANSPORT CICOTT ST., IN US","40.7477","-86.3877","182.9","2009-10",,,"368.6","0","0.0",",0","17",",0","10",",0","0",",0","0",",0","0",",0","0",",0","0",",0","1",",0","0",",0","1.1",",0,11,","0",",,0,31,+","0.0",",,0,31,+","42.2",",,0,23,","21.1",",0,22,",,,"301.9","0",,,,,,,,,,,,,"262.5",",0",,,,,,,,,,,,,,,,,,,,,,,,,,,,,,,,,,,,,,,,,,,,,,,,,,,,,,,,,,,,,,,,,"162.9",",,,0",,,"0",",,,0","9.9",",0","14.5",",,,0","5.2",",,,0",,,,,,,,,,,,
"US1INSH0010","SHELBYVILLE 7.1 SW, IN US","39.453772","-85.875224","216.1","2009-10",,,,,,,"10","3,N","5","3,N",,,,,,,,,,,,,,,,,,,,,"46.0","3,,N,03,",,,,,,,,,,,,,,,,,,,,,,,,,,,,,,,,,,,,,,,,,,,,,,,,,,,,,,,,,,,,,,,,,,,,,,,,,,,,,,,,,,,,,"118.0","3,,,N",,,,,,,,,,,,,,,,,,,,,,
"US1INLG0003","SHIPSHEWANA 6.8 NNW, IN US","41.758996","-85.648027","248.1","2009-10",,,,,,,"16","2,N","8","2,N",,,"0","2,N",,,,,,,,,,,,,,,"0.0","2,T,N,16,+","30.7","2,,N,02,",,,,,,,,,,,,,,,,,,,,,,,,,,,,,,,,,,,,,,,,,,,,,,,,,,,,,,,,,,,,,,,,,,,,,,,,,,,,,,,,,,,,,"112.5",",a,,N",,,"0","2,T,,N",,,,,,,,,,,,,,,,,,
"US1INLG0001","ORLAND 6.6 SSW, IN US","41.638525","-85.201982","302.1","2009-10",,,,,,,"12","5,N","9","5,N",,,,,,,,,,,,,,,,,,,,,"31.0","5,,N,02,",,,,,,,,,,,,,,,,,,,,,,,,,,,,,,,,,,,,,,,,,,,,,,,,,,,,,,,,,,,,,,,,,,,,,,,,,,,,,,,,,,,,,"138.1",",a,,N",,,,,,,,,,,,,,,,,,,,,,
"US1INLG0008","LAGRANGE 7.2 ESE, IN US","41.618486","-85.281697","299.9","2009-10",,,,,,,"13","3,N","7","3,N",,,,,,,,,,,,,,,,,,,,,"30.0","3,,N,02,",,,,,,,,,,,,,,,,,,,,,,,,,,,,,,,,,,,,,,,,,,,,,,,,,,,,,,,,,,,,,,,,,,,,,,,,,,,,,,,,,,,,,"127.4",",a,,N",,,,,,,,,,,,,,,,,,,,,,
"US1INLG0007","LAGRANGE 0.2 NNE, IN US","41.64589","-85.415409","276.8","2009-10",,,,,,,,,,,,,,,,,,,,,,,,,,,,,,,,,,,,,,,,,,,,,,,,,,,,,,,,,,,,,,,,,,,,,,,,,,,,,,,,,,,,,,,,,,,,,,,,,,,,,,,,,,,,,,,,,,,,,"110.8","1,a,,N",,,,,,,,,,,,,,,,,,,,,,
"US1INLG0006","LAGRANGE 9.4 ESE, IN US","41.603425","-85.243576","293.8","2009-10",,,,,,,"9","3,N","7","3,N",,,,,,,,,,,,,,,,,,,,,"29.7","3,,N,02,",,,,,,,,,,,,,,,,,,,,,,,,,,,,,,,,,,,,,,,,,,,,,,,,,,,,,,,,,,,,,,,,,,,,,,,,,,,,,,,,,,,,,"111.7",",a,,N",,,,,,,,,,,,,,,,,,,,,,
"US1INLG0005","LAGRANGE 1.3 ENE, IN US","41.6527","-85.3963","288.0","2009-10",,,,,,,"17",",N","11",",N",,,,,,,,,,,,,,,,,,,,,"30.0",",,N,03,",,,,,,,,,,,,,,,,,,,,,,,,,,,,,,,,,,,,,,,,,,,,,,,,,,,,,,,,,,,,,,,,,,,,,,,,,,,,,,,,,,,,,"173.3",",,,N",,,,,,,,,,,,,,,,,,,,,,
"US1INDV0001","WASHINGTON 1.5 NW, IN US","38.67543","-87.18996","145.1","2009-10",,,,,,,"14",",N","9",",N",,,,,,,,,,,,,,,,,,,,,"91.9",",,N,09,",,,,,,,,,,,,,,,,,,,,,,,,,,,,,,,,,,,,,,,,,,,,,,,,,,,,,,,,,,,,,,,,,,,,,,,,,,,,,,,,,,,,,"235.8",",,,N",,,,,,,,,,,,,,,,,,,,,,
"USC00124272","INDIANAPOLIS SE SIDE, IN US","39.7164","-86.0678","257.6","2009-10",,,,,"0.0",",0","12",",0","10",",0","0",",0","0",",0","0",",0","5",",0","0",",0","1",",0","0",",0","-2.8",",0,19,+","0",",,0,31,+","0.0",",,0,31,+","31.8",",,0,09,","21.1",",0,31,",,,"308.1","0",,,,,,,,,,,,,"266.6",",0",,,,,,,,,,,,,,,,,,,,,,,,,,,,,,,,,,,,,,,,,,,,,,,,,,,,,,,,,,,,,,,,,"136.7",",,,0",,,"0",",,,0","9.7",",0","14.6",",,,0","4.8",",,,0",,,,,,,,,,,,
"US1INPM0010","GREENCASTLE 3.9 SSE, IN US","39.588476","-86.817708","221.9","2009-10",,,,,,,"14",",N","9",",N",,,,,,,,,,,,,,,,,,,,,"43.2",",,N,09,",,,,,,,,,,,,,,,,,,,,,,,,,,,,,,,,,,,,,,,,,,,,,,,,,,,,,,,,,,,,,,,,,,,,,,,,,,,,,,,,,,,,,"170.8",",,,N",,,,,,,,,,,,,,,,,,,,,,
"USC00122096","DECATUR 1 N, IN US","40.8483","-84.9299","239.3","2009-10",,,"338.3","0","0.0",",0","14",",0","10",",0","0",",0","0",",0","0",",0","3",",0","0",",0","2",",0","0",",0","-3.3",",0,18,","0",",,0,31,+","0.0",",,0,31,+","30.5",",,0,24,","22.8",",0,31,",,,"332.5","0",,,,,,,,,,,,,"281.1",",0",,,,,,,,,,,,,,,,,,,,,,,,,,,,,,,,,,,,,,,,,,,,,,,,,,,,,,,,,,,,,,,,,"139.5",",,,0",,,"0",",,,0","9.3",",0","14.3",",,,0","4.2",",,,0",,,,,,,,,,,,
"USC00129724","WOODBURN 3 N, IN US","41.1645","-84.8482","216.4","2009-10",,,"263.8","0","0.0",",0","19",",0","8",",0","0",",0","0",",0","0",",0","4",",0","0",",0","2",",0","0",",0","-2.2",",0,19,+","0",",,0,31,+","0.0",",,0,31,+","26.4",",,0,24,","21.7",",0,22,",,,"349.4","0",,,,,,,,,,,,,"294.1",",0",,,,,,,,,,,,,,,,,,,,,,,,,,,,,,,,,,,,,,,,,,,,,,,,,,,,,,,,,,,,,,,,,"122.7",",,,0",,,"0",",,,0","8.9",",0","13.9",",,,0","3.8",",,,0",,,,,,,,,,,,
"USC00128992","VALPARAISO 5 NNE, IN US","41.5436","-87.0319","264.9","2009-10",,,,,,,"18",",0","12",",0","0",",0","0","1,0",,,,,,,,,,,,,"0",",,0,31,+","0.0","1,,0,31,+","66.8",",,0,30,",,,,,,,,,,,,,,,,,,,,,,,,,,,,,,,,,,,,,,,,,,,,,,,,,,,,,,,,,,,,,,,,,,,,,,,,,,,,,,,,,,,,,"197.1",",,,0",,,"0","1,,,0",,,,,,,,,,,,,,,,,,
"US1INRP0004","OSGOOD 4.1 NE, IN US","39.16916","-85.23612","290.2","2009-10",,,,,,,"14",",N","9",",N",,,,,,,,,,,,,,,,,,,,,"45.5",",,N,09,",,,,,,,,,,,,,,,,,,,,,,,,,,,,,,,,,,,,,,,,,,,,,,,,,,,,,,,,,,,,,,,,,,,,,,,,,,,,,,,,,,,,,"141.0",",,,N",,,,,,,,,,,,,,,,,,,,,,
"USC00129605","WILLIAMS 3 SW, IN US","38.7669","-86.6846","166.7","2009-10",,,,,,,"12",",0","9",",0","0",",0","0",",0",,,,,,,,,,,,,"0",",,0,31,+","0.0",",,0,31,+","67.1",",,0,09,",,,,,,,,,,,,,,,,,,,,,,,,,,,,,,,,,,,,,,,,,,,,,,,,,,,,,,,,,,,,,,,,,,,,,,,,,,,,,,,,,,,,,"195.8",",,,0",,,"0",",,,0",,,,,,,,,,,,,,,,,,
"US1INFL0003","ROCHESTER 2.4 NW, IN US","41.085157","-86.229331","232.9","2009-10",,,,,,,"18",",N","10",",N","0",",N","0",",N",,,,,,,,,,,,,"0",",,N,31,+","0.0",",,N,31,+","27.4",",,N,23,",,,,,,,,,,,,,,,,,,,,,,,,,,,,,,,,,,,,,,,,,,,,,,,,,,,,,,,,,,,,,,,,,,,,,,,,,,,,,,,,,,,,,"131.4",",,,N",,,"0",",,,N",,,,,,,,,,,,,,,,,,
"US1INSH0005","SHELBYVILLE 0.8 SSW, IN US","39.512138","-85.779105","232.9","2009-10",,,,,,,"14","2,N","9","2,N",,,,,,,,,,,,,,,,,,,,,"55.9","2,,N,02,",,,,,,,,,,,,,,,,,,,,,,,,,,,,,,,,,,,,,,,,,,,,,,,,,,,,,,,,,,,,,,,,,,,,,,,,,,,,,,,,,,,,,"184.1","2,,,N",,,,,,,,,,,,,,,,,,,,,,
"US1INSH0004","SHELBYVILLE 7.1 WSW, IN US","39.4944","-85.9041","226.5","2009-10",,,,,,,"12","2,N","9","2,N",,,,,,,,,,,,,,,,,,,,,"38.9","2,,N,03,",,,,,,,,,,,,,,,,,,,,,,,,,,,,,,,,,,,,,,,,,,,,,,,,,,,,,,,,,,,,,,,,,,,,,,,,,,,,,,,,,,,,,"151.3","2,,,N",,,,,,,,,,,,,,,,,,,,,,
"US1INSH0009","FAIRLAND 0.5 ENE, IN US","39.603655","-85.854013","243.8","2009-10",,,,,,,"12","1,N","9","1,N",,,,,,,,,,,,,,,,,,,,,"39.6","1,,N,02,",,,,,,,,,,,,,,,,,,,,,,,,,,,,,,,,,,,,,,,,,,,,,,,,,,,,,,,,,,,,,,,,,,,,,,,,,,,,,,,,,,,,,"159.6","1,,,N",,,,,,,,,,,,,,,,,,,,,,
"US1INNB0004","ALBION 2.8 ENE, IN US","41.404058","-85.366454","284.4","2009-10",,,,,,,"16","2,N","8","2,N",,,,,,,,,,,,,,,,,,,,,"23.6","2,,N,24,",,,,,,,,,,,,,,,,,,,,,,,,,,,,,,,,,,,,,,,,,,,,,,,,,,,,,,,,,,,,,,,,,,,,,,,,,,,,,,,,,,,,,"131.2",",a,,N",,,,,,,,,,,,,,,,,,,,,,
"US1INSH0007","MORRISTOWN 3.0 SSW, IN US","39.630961","-85.717071","263.0","2009-10",,,,,,,"13","1,N","9","1,N",,,,,,,,,,,,,,,,,,,,,"52.1","1,,N,02,",,,,,,,,,,,,,,,,,,,,,,,,,,,,,,,,,,,,,,,,,,,,,,,,,,,,,,,,,,,,,,,,,,,,,,,,,,,,,,,,,,,,,"166.4","1,,,N",,,,,,,,,,,,,,,,,,,,,,
"US1INDV0012","PLAINVILLE 1.3 S, IN US","38.785","-87.1553","168.2","2009-10",,,,,,,"13","4,N","9","4,N",,,,,,,,,,,,,,,,,,,,,"80.8","4,,N,09,",,,,,,,,,,,,,,,,,,,,,,,,,,,,,,,,,,,,,,,,,,,,,,,,,,,,,,,,,,,,,,,,,,,,,,,,,,,,,,,,,,,,,"222.9",",a,,N",,,,,,,,,,,,,,,,,,,,,,
"USC00126340","NOBLESVILLE 3 W, IN US","40.0382","-86.0712","252.1","2009-10",,,,,,,,,,,"0",",0","0",",0",,,,,,,,,,,,,"0",",,0,31,+","0.0",",,0,31,+",,,,,,,,,,,,,,,,,,,,,,,,,,,,,,,,,,,,,,,,,,,,,,,,,,,,,,,,,,,,,,,,,,,,,,,,,,,,,,,,,,,,,,,"159.2",",a,,0",,,"0",",,,0",,,,,,,,,,,,,,,,,,
"USC00126580","OOLITIC PURDUE EX FRM, IN US","38.88855","-86.55169","197.8","2009-10",,,"419.9","0","0.0",",0","15",",0","9",",0","0",",0","0",",0","0",",0","2",",0","0",",0","3",",0","0",",0","-1.1",",0,19,+","0",",,0,31,+","0.0",",,0,31,+","68.6",",,0,09,","23.3",",0,31,",,,"265.6","0","12.2","1,,,0,3,2","13.3","2,,,0,5,2",,,,,,,,,"238.4",",0","16.1","1,,,0,3,2","15.0","2,,,0,5,2",,,,,,,,,"4.4","1,,,0,3,2","2.8","2,,,0,5,2",,,,,,,,,"7.2","1,,,0,3,2","8.9","2,,,0,5,2",,,,,,,,,"8.7","1,,,0,3,2","9.9","2,,,0,5,2",,,,,,,,,,,"12.1","1,,,0,3,2","11.5","2,,,0,5,2",,,,,,,,,,,"185.4",",,,0",,,"0",",,,0","10.6",",0","16.1",",,,0","5.2",",,,0",,,,,,,,,,,,
"USC00126864","PERU, IN US","40.7646","-86.074","201.2","2009-10",,,,,,,"16",",0","9",",0","0",",0","0",",0",,,,,,,,,,,,,"0",",,0,31,+","0.0",",,0,31,+","26.2",",,0,08,",,,,,,,,,,,,,,,,,,,,,,,,,,,,,,,,,,,,,,,,,,,,,,,,,,,,,,,,,,,,,,,,,,,,,,,,,,,,,,,,,,,,,"145.3",",,,0",,,"0",",,,0",,,,,,,,,,,,,,,,,,
"US1INCK0017","BORDEN 0.3 SW, IN US","38.465937","-85.948227","170.7","2009-10",,,,,,,"13",",N","10",",N",,,,,,,,,,,,,,,,,,,,,"108.0",",,N,09,",,,,,,,,,,,,,,,,,,,,,,,,,,,,,,,,,,,,,,,,,,,,,,,,,,,,,,,,,,,,,,,,,,,,,,,,,,,,,,,,,,,,,"243.9",",,,N",,,,,,,,,,,,,,,,,,,,,,
"US1INCK0018","JEFFERSONVILLE 0.8 NW, IN US","38.309792","-85.73601","147.8","2009-10",,,,,,,"14",",N","10",",N",,,,,,,,,,,,,,,,,,,,,"60.2",",,N,09,",,,,,,,,,,,,,,,,,,,,,,,,,,,,,,,,,,,,,,,,,,,,,,,,,,,,,,,,,,,,,,,,,,,,,,,,,,,,,,,,,,,,,"188.0",",,,N",,,,,,,,,,,,,,,,,,,,,,
"USC00126989","PLYMOUTH, IN US","41.3392","-86.3358","248.4","2009-10",,,"269.6","0","0.0",",0","15",",0","11",",0","0",",0","0",",0","0",",0","3",",0","0",",0","1",",0","0",",0","0.0",",0,18,+","0",",,0,31,+","0.0",",,0,31,+","30.0",",,0,02,","21.1",",0,22,",,,"351.4","0",,,,,,,,,,,,,"283.8",",0",,,,,,,,,,,,,,,,,,,,,,,,,,,,,,,,,,,,,,,,,,,,,,,,,,,,,,,,,,,,,,,,,"158.0",",,,0",,,"0",",,,0","9.2",",0","13.9",",,,0","4.4",",,,0",,,,,,,,,,,,
"USC00125535","MEDARYVILLE, IN US","41.1588","-86.9013","211.8","2009-10",,,,,,,"16",",0","11",",0","0",",0","0",",0",,,,,,,,,,,,,"0",",,0,31,+","0.0",",,0,31,+","54.6",",,0,23,",,,,,,,,,,,,,,,,,,,,,,,,,,,,,,,,,,,,,,,,,,,,,,,,,,,,,,,,,,,,,,,,,,,,,,,,,,,,,,,,,,,,,"180.5",",,,0",,,"0",",,,0",,,,,,,,,,,,,,,,,,
"US1INPT0019","VALPARAISO 5.9 NW, IN US","41.526628","-87.143551","202.1","2009-10",,,,,,,"21",",N","15",",N",,,,,,,,,,,,,,,,,,,,,"58.7",",,N,30,",,,,,,,,,,,,,,,,,,,,,,,,,,,,,,,,,,,,,,,,,,,,,,,,,,,,,,,,,,,,,,,,,,,,,,,,,,,,,,,,,,,,,"210.8",",,,N",,,,,,,,,,,,,,,,,,,,,,
"USC00122149","DELPHI, IN US","40.615","-86.666","169.5","2009-10",,,"374.6","0","0.0",",0","6",",0","5",",0","0",",0","0",",0","0",",0","1",",0","0",",0","2",",0","0",",0","-1.7",",0,16,","0",",,0,31,+","0.0",",,0,31,+","70.6",",,0,28,","21.7",",0,20,",,,"278.2","0",,,,,,,,,,,,,"232.0",",0",,,,,,,,,,,,,,,,,,,,,,,,,,,,,,,,,,,,,,,,,,,,,,,,,,,,,,,,,,,,,,,,,"150.1",",,,0",,,"0",",,,0","10.9",",0","16.0",",,,0","5.7",",,,0",,,,,,,,,,,,
"US1INSN0012","HUDSON 0.3 SE, IN US","41.53082","-85.07775","301.1","2009-10",,,,,,,,,,,,,,,,,,,,,,,,,,,,,,,,,,,,,,,,,,,,,,,,,,,,,,,,,,,,,,,,,,,,,,,,,,,,,,,,,,,,,,,,,,,,,,,,,,,,,,,,,,,,,,,,,,,,,"86.7","4,a,,N",,,,,,,,,,,,,,,,,,,,,,
"US1INPT0018","HEBRON 3.7 NE, IN US","41.367069","-87.162253","223.1","2009-10",,,,,,,"21","3,N","12","3,N",,,,,,,,,,,,,,,,,,,,,"61.0","3,,N,30,+",,,,,,,,,,,,,,,,,,,,,,,,,,,,,,,,,,,,,,,,,,,,,,,,,,,,,,,,,,,,,,,,,,,,,,,,,,,,,,,,,,,,,"225.4",",a,,N",,,,,,,,,,,,,,,,,,,,,,
"US1INSN0014","FREMONT 6.4 W, IN US","41.7441","-85.0574","304.5","2009-10",,,,,,,,,,,,,,,,,,,,,,,,,,,,,,,,,,,,,,,,,,,,,,,,,,,,,,,,,,,,,,,,,,,,,,,,,,,,,,,,,,,,,,,,,,,,,,,,,,,,,,,,,,,,,,,,,,,,,"121.8","4,a,,N",,,,,,,,,,,,,,,,,,,,,,
"USC00127959","SHAKAMAK STATE PARK, IN US","39.1613","-87.2436","167.3","2009-10",,,,,"0.0","2,0","12","2,0","7","2,0","0",",0","0",",0","0","2,0","2","2,0","0","1,0","0","1,0","0","1,0","-0.6","2,0,19,+","0",",,0,31,+","0.0",",,0,31,+","28.7","2,,0,23,","20.6","1,0,06,",,,"247.4","0",,,,,,,,,,,,,"221.4","1,0",,,,,,,,,,,,,,,,,,,,,,,,,,,,,,,,,,,,,,,,,,,,,,,,,,,,,,,,,,,,,,,,,"203.9",",a,,0",,,"0",",,,0","10.8","2,0","15.6","1,,,0","6.0","2,,,0",,,,,,,,,,,,
"US1INPT0024","VALPARAISO 5.5 S, IN US","41.398869","-87.031058","224.0","2009-10",,,,,,,"19","3,N","13","3,N",,,,,,,,,,,,,,,,,,,,,"60.5","3,,N,23,",,,,,,,,,,,,,,,,,,,,,,,,,,,,,,,,,,,,,,,,,,,,,,,,,,,,,,,,,,,,,,,,,,,,,,,,,,,,,,,,,,,,,"210.3","1,a,,N",,,,,,,,,,,,,,,,,,,,,,
"US1INPT0025","VALPARAISO 5.1 WSW, IN US","41.455978","-87.145386","227.1","2009-10",,,,,,,"18","4,N","11","4,N",,,,,,,,,,,,,,,,,,,,,"59.4","4,,N,30,",,,,,,,,,,,,,,,,,,,,,,,,,,,,,,,,,,,,,,,,,,,,,,,,,,,,,,,,,,,,,,,,,,,,,,,,,,,,,,,,,,,,,"199.3","4,,,N",,,,,,,,,,,,,,,,,,,,,,
"US1INHW0010","KOKOMO 6.8 W, IN US","40.489282","-86.261137","243.8","2009-10",,,,,,,"11","3,N","7","3,N",,,"0","3,N",,,,,,,,,,,,,,,"0.0","3,,N,31,+","46.7","3,,N,23,",,,,,,,,,,,,,,,,,,,,,,,,,,,,,,,,,,,,,,,,,,,,,,,,,,,,,,,,,,,,,,,,,,,,,,,,,,,,,,,,,,,,,"170.7",",a,,N",,,"0","3,,,N",,,,,,,,,,,,,,,,,,
"US1INHW0013","KOKOMO 4.4 E, IN US","40.466761","-86.051037","253.0","2009-10",,,,,,,"14","5,N","8","5,N",,,,,,,,,,,,,,,,,,,,,"44.5","5,,N,09,",,,,,,,,,,,,,,,,,,,,,,,,,,,,,,,,,,,,,,,,,,,,,,,,,,,,,,,,,,,,,,,,,,,,,,,,,,,,,,,,,,,,,"179.5","5,,,N",,,,,,,,,,,,,,,,,,,,,,
"USW00063898","BEDFORD 5 WNW, IN US","38.8882","-86.5707","231.6","2009-10",,,"418.4","R","0.0",",R","12",",R","9",",R",,,,,"0",",R","0",",R","0",",R","2",",R","0",",R","0.3",",R,18,",,,,,"60.7",",,R,08,","23.4",",R,30,",,,"255.8","R",,,,,,,,,,,,,"227.1",",R",,,,,,,,,,,,,,,,,,,,,,,,,,,,,,,,,,,,,,,,,,,,,,,,,,,,,,,,,,,,,,,,,"185.2",",,,R",,,,,"11.0",",R","15.5",",,,R","6.5",",,,R",,,,,,,,,,,,
"US1INWH0011","BROOKSTON 7.4 WNW, IN US","40.634856","-86.998404","224.9","2009-10",,,,,,,,,,,,,,,,,,,,,,,,,,,,,,,,,,,,,,,,,,,,,,,,,,,,,,,,,,,,,,,,,,,,,,,,,,,,,,,,,,,,,,,,,,,,,,,,,,,,,,,,,,,,,,,,,,,,,"137.8","3,a,,N",,,,,,,,,,,,,,,,,,,,,,
"USC00125541","MEDORA, IN US","38.7913","-86.2096","159.7","2009-10",,,,,,,"16",",0","9",",0","0",",0","0",",0",,,,,,,,,,,,,"0",",,0,31,+","0.0",",,0,31,+","69.3",",,0,09,",,,,,,,,,,,,,,,,,,,,,,,,,,,,,,,,,,,,,,,,,,,,,,,,,,,,,,,,,,,,,,,,,,,,,,,,,,,,,,,,,,,,,"206.5",",,,0",,,"0",",,,0",,,,,,,,,,,,,,,,,,
"US1INCK0023","JEFFERSONVILLE 0.4 SE, IN US","38.297265","-85.71975","142.0","2009-10",,,,,,,"11",",N","9",",N",,,,,,,,,,,,,,,,,,,,,"54.6",",,N,09,",,,,,,,,,,,,,,,,,,,,,,,,,,,,,,,,,,,,,,,,,,,,,,,,,,,,,,,,,,,,,,,,,,,,,,,,,,,,,,,,,,,,,"176.7",",,,N",,,,,,,,,,,,,,,,,,,,,,
"US1INSN0007","ANGOLA 8.7 ESE, IN US","41.607934","-84.837635","301.1","2009-10",,,,,,,"17",",N","11",",N",,,,,,,,,,,,,,,,,,,,,"30.2",",,N,24,",,,,,,,,,,,,,,,,,,,,,,,,,,,,,,,,,,,,,,,,,,,,,,,,,,,,,,,,,,,,,,,,,,,,,,,,,,,,,,,,,,,,,"136.8",",,,N",,,,,,,,,,,,,,,,,,,,,,
"USC00120096","ALEXANDRIA, IN US","40.1968","-85.6702","265.5","2009-10",,,,,,,"12",",0","8",",0","0",",0","0",",0",,,,,,,,,,,,,"0",",,0,31,+","0.0",",,0,31,+","30.5",",,0,23,",,,,,,,,,,,,,,,,,,,,,,,,,,,,,,,,,,,,,,,,,,,,,,,,,,,,,,,,,,,,,,,,,,,,,,,,,,,,,,,,,,,,,"140.3",",,,0",,,"0",",,,0",,,,,,,,,,,,,,,,,,
"US1INSN0009","ANGOLA 4.1 N, IN US","41.701001","-84.986686","328.0","2009-10",,,,,,,"17",",N","10",",N",,,,,,,,,,,,,,,,,,,,,"33.5",",,N,02,",,,,,,,,,,,,,,,,,,,,,,,,,,,,,,,,,,,,,,,,,,,,,,,,,,,,,,,,,,,,,,,,,,,,,,,,,,,,,,,,,,,,,"135.5",",,,N",,,,,,,,,,,,,,,,,,,,,,
"USC00121187","BUTLER 1 SE, IN US","41.4083","-84.8536","259.1","2009-10",,,,,,,"15",",0","9",",0","0",",0","0",",0",,,,,,,,,,,,,"0",",,0,31,+","0.0",",,0,31,+","31.8",",,0,02,",,,,,,,,,,,,,,,,,,,,,,,,,,,,,,,,,,,,,,,,,,,,,,,,,,,,,,,,,,,,,,,,,,,,,,,,,,,,,,,,,,,,,"141.2",",,,0",,,"0",",,,0",,,,,,,,,,,,,,,,,,
"US1INPT0008","VALPARAISO 0.6 SE, IN US","41.470792","-87.043314","251.2","2009-10",,,,,,,"20",",N","12",",N",,,,,,,,,,,,,,,,,,,,,"58.4",",,N,30,",,,,,,,,,,,,,,,,,,,,,,,,,,,,,,,,,,,,,,,,,,,,,,,,,,,,,,,,,,,,,,,,,,,,,,,,,,,,,,,,,,,,,"207.0",",,,N",,,,,,,,,,,,,,,,,,,,,,
"USC00127724","SAINT MEINRAD, IN US","38.1641","-86.8094","155.4","2009-10",,,,,"1.7","1,0","12",",0","11",",0","0",",0","0",",0","0","1,0","1","1,0","0","1,0","1","1,0","0","1,0","0.0","1,0,18,","0",",,0,31,+","0.0",",,0,31,+","78.7",",,0,09,","23.9","1,0,30,",,,"194.1","0",,,,,,,,,,,,,"179.7","1,0",,,,,,,,,,,,,,,,,,,,,,,,,,,,,,,,,,,,,,,,,,,,,,,,,,,,,,,,,,,,,,,,,"220.1",",,,0",,,"0",",,,0","12.4","1,0","17.3","1,,,0","7.5","1,,,0",,,,,,,,,,,,
"USW00053866","SHELBYVILLE MUNICIPAL AIRPORT, IN US","39.58545","-85.79982","244.4","2009-10","3.2",",W","390.7","W","0.0",",W","14",",W","10",",W",,,,,"0",",W","2",",W","0",",W","3",",W","0",",W","-3.2",",W,18,",,,,,"32.8",",,W,02,","23.9",",W,30,",,,"274.0","W",,,,,,,,,,,,,"240.7",",W",,,,,,,,,,,,,,,,,,,,,,,,,,,,,,,,,,,,,,,,,,,,,,,,,,,,,,,,,,,,,,,,,"158.6",",,,W",,,,,"10.6",",W","15.7",",,,W","5.4",",,,W",,,"190",",W","200",",W",,,"13.9",",W","19.7",",W"
"US1INHN0011","MCCORDSVILLE 2.6 NE, IN US","39.937","-85.9","259.1","2009-10",,,,,,,"12",",N","8",",N",,,,,,,,,,,,,,,,,,,,,"30.0",",,N,09,",,,,,,,,,,,,,,,,,,,,,,,,,,,,,,,,,,,,,,,,,,,,,,,,,,,,,,,,,,,,,,,,,,,,,,,,,,,,,,,,,,,,,"125.6",",,,N",,,,,,,,,,,,,,,,,,,,,,
"US1INSN0002","HUDSON 4.1 NNW, IN US","41.591868","-85.101163","321.9","2009-10",,,,,,,"20",",N","10",",N",,,,,,,,,,,,,,,,,,,,,"32.0",",,N,02,",,,,,,,,,,,,,,,,,,,,,,,,,,,,,,,,,,,,,,,,,,,,,,,,,,,,,,,,,,,,,,,,,,,,,,,,,,,,,,,,,,,,,"148.4",",,,N",,,,,,,,,,,,,,,,,,,,,,
"US1INSN0003","HUDSON 4.6 N, IN US","41.5997","-85.089524","301.1","2009-10",,,,,,,"18",",N","11",",N",,,"0",",N",,,,,,,,,,,,,,,"0.0",",T,N,16,+","32.0",",,N,02,",,,,,,,,,,,,,,,,,,,,,,,,,,,,,,,,,,,,,,,,,,,,,,,,,,,,,,,,,,,,,,,,,,,,,,,,,,,,,,,,,,,,,"144.0",",,,N",,,"0",",T,,N",,,,,,,,,,,,,,,,,,
"USC00129905","YOUNG AMERICA, IN US","40.5615","-86.3424","235.6","2009-10",,,"276.2","0","0.0",",0","10",",0","8",",0","0",",0","0",",0","0",",0","3",",0","0",",0","2",",0","0",",0","-1.1",",0,11,","0",",,0,31,+","0.0",",,0,31,+","54.6",",,0,23,","21.7",",0,22,",,,"374.3","0",,,,,,,,,,,,,"295.5",",0",,,,,,,,,,,,,,,,,,,,,,,,,,,,,,,,,,,,,,,,,,,,,,,,,,,,,,,,,,,,,,,,,"174.8",",,,0",,,"0",",,,0","8.8",",0","14.1",",,,0","3.5",",,,0",,,,,,,,,,,,
"US1INGR0014","MARION 1.9 W, IN US","40.552334","-85.702439","258.8","2009-10",,,,,,,"16","1,N","8","1,N",,,,,,,,,,,,,,,,,,,,,"43.7","1,,N,23,",,,,,,,,,,,,,,,,,,,,,,,,,,,,,,,,,,,,,,,,,,,,,,,,,,,,,,,,,,,,,,,,,,,,,,,,,,,,,,,,,,,,,"162.3","1,,,N",,,,,,,,,,,,,,,,,,,,,,
"US1INPT0013","VALPARAISO 6.2 WSW, IN US","41.44","-87.160556","239.9","2009-10",,,,,,,,,,,,,,,,,,,,,,,,,,,,,,,,,,,,,,,,,,,,,,,,,,,,,,,,,,,,,,,,,,,,,,,,,,,,,,,,,,,,,,,,,,,,,,,,,,,,,,,,,,,,,,,,,,,,,"234.1",",a,,N",,,,,,,,,,,,,,,,,,,,,,
"US1INHN0004","MCCORDSVILLE 1.3 N, IN US","39.92668","-85.92738","252.1","2009-10",,,,,,,"10","4,N","8","4,N",,,,,,,,,,,,,,,,,,,,,"31.2","4,,N,23,",,,,,,,,,,,,,,,,,,,,,,,,,,,,,,,,,,,,,,,,,,,,,,,,,,,,,,,,,,,,,,,,,,,,,,,,,,,,,,,,,,,,,"130.6","2,a,,N",,,,,,,,,,,,,,,,,,,,,,
"US1INPT0014","CHESTERTON 3.0 ESE, IN US","41.578833","-87.008","216.1","2009-10",,,,,,,"19",",N","15",",N",,,,,,,,,,,,,,,,,,,,,"53.6",",,N,30,",,,,,,,,,,,,,,,,,,,,,,,,,,,,,,,,,,,,,,,,,,,,,,,,,,,,,,,,,,,,,,,,,,,,,,,,,,,,,,,,,,,,,"215.9",",,,N",,,,,,,,,,,,,,,,,,,,,,
"US1INGR0012","MARION 5.6 NE, IN US","40.60385","-85.589309","267.0","2009-10",,,,,,,"15",",N","9",",N",,,,,,,,,,,,,,,,,,,,,"35.6",",,N,09,",,,,,,,,,,,,,,,,,,,,,,,,,,,,,,,,,,,,,,,,,,,,,,,,,,,,,,,,,,,,,,,,,,,,,,,,,,,,,,,,,,,,,"165.1",",,,N",,,,,,,,,,,,,,,,,,,,,,
"US1INHN0002","GREENFIELD 2.4 W, IN US","39.791","-85.816","266.1","2009-10",,,,,,,"11",",N","10",",N",,,,,,,,,,,,,,,,,,,,,"27.9",",,N,02,",,,,,,,,,,,,,,,,,,,,,,,,,,,,,,,,,,,,,,,,,,,,,,,,,,,,,,,,,,,,,,,,,,,,,,,,,,,,,,,,,,,,,"138.5",",,,N",,,,,,,,,,,,,,,,,,,,,,
"US1INGR0013","MARION 5.4 NNE, IN US","40.61922","-85.619623","265.5","2009-10",,,,,,,"13","3,N","8","3,N",,,,,,,,,,,,,,,,,,,,,"37.8","3,,N,09,",,,,,,,,,,,,,,,,,,,,,,,,,,,,,,,,,,,,,,,,,,,,,,,,,,,,,,,,,,,,,,,,,,,,,,,,,,,,,,,,,,,,,"136.4","3,,,N",,,,,,,,,,,,,,,,,,,,,,
"US1INHN0003","NEW PALESTINE 1.4 S, IN US","39.70061","-85.895044","246.0","2009-10",,,,,,,"15",",N","9",",N",,,,,,,,,,,,,,,,,,,,,"33.3",",,N,09,",,,,,,,,,,,,,,,,,,,,,,,,,,,,,,,,,,,,,,,,,,,,,,,,,,,,,,,,,,,,,,,,,,,,,,,,,,,,,,,,,,,,,"146.3",",,,N",,,,,,,,,,,,,,,,,,,,,,
"US1INPT0012","VALPARAISO 4.3 SW, IN US","41.434538","-87.112379","235.9","2009-10",,,,,,,"20",",N","12",",N",,,,,,,,,,,,,,,,,,,,,"61.0",",,N,30,",,,,,,,,,,,,,,,,,,,,,,,,,,,,,,,,,,,,,,,,,,,,,,,,,,,,,,,,,,,,,,,,,,,,,,,,,,,,,,,,,,,,,"223.8",",,,N",,,,,,,,,,,,,,,,,,,,,,
"US1INCY0003","CLAY CITY 0.1 ESE, IN US","39.276373","-87.110448","184.1","2009-10",,,,,,,"17","1,N","13","1,N","0","1,N","0","1,N",,,,,,,,,,,,,"0","1,,N,31,+","0.0","1,,N,31,+","61.7","1,,N,09,",,,,,,,,,,,,,,,,,,,,,,,,,,,,,,,,,,,,,,,,,,,,,,,,,,,,,,,,,,,,,,,,,,,,,,,,,,,,,,,,,,,,,"192.7","1,,,N",,,"0","1,,,N",,,,,,,,,,,,,,,,,,
"US1INGR0011","GAS CITY 0.9 SW, IN US","40.479301","-85.618888","255.4","2009-10",,,,,,,"15","1,N","10","1,N",,,,,,,,,,,,,,,,,,,,,"34.8","1,,N,24,",,,,,,,,,,,,,,,,,,,,,,,,,,,,,,,,,,,,,,,,,,,,,,,,,,,,,,,,,,,,,,,,,,,,,,,,,,,,,,,,,,,,,"153.3","1,,,N",,,,,,,,,,,,,,,,,,,,,,
"US1INCY0004","JASONVILLE 4.0 ENE, IN US","39.17632","-87.144557","167.6","2009-10",,,,,,,"13",",N","10",",N",,,,,,,,,,,,,,,,,,,,,"74.9",",,N,09,",,,,,,,,,,,,,,,,,,,,,,,,,,,,,,,,,,,,,,,,,,,,,,,,,,,,,,,,,,,,,,,,,,,,,,,,,,,,,,,,,,,,,"202.2",",,,N",,,,,,,,,,,,,,,,,,,,,,
"USR0000IHAR","HARDIN RIDGE INDIANA, IN US","39.0","-86.4228","228.6","2009-10",,,"509.3","U","0.0",",U",,,,,,,,,"0",",U","1",",U","0",",U","5",",U","0",",U","0.0",",U,18,",,,,,,,"23.3",",U,30,",,,"238.0","U",,,,,,,,,,,,,"216.7",",U",,,,,,,,,,,,,,,,,,,,,,,,,,,,,,,,,,,,,,,,,,,,,,,,,,,,,,,,,,,,,,,,,,,,,,,"11.3",",U","16.2",",,,U","6.4",",,,U",,,,,,,,,,,,
"US1INHW0005","KOKOMO 4.3 SW, IN US","40.438315","-86.197831","255.1","2009-10",,,,,,,,,,,,,,,,,,,,,,,,,,,,,,,,,,,,,,,,,,,,,,,,,,,,,,,,,,,,,,,,,,,,,,,,,,,,,,,,,,,,,,,,,,,,,,,,,,,,,,,,,,,,,,,,,,,,,"183.4","5,a,,N",,,,,,,,,,,,,,,,,,,,,,
"US1INWH0002","BURNETTSVILLE 9.9 NNW, IN US","40.897723","-86.652514","213.1","2009-10",,,,,,,"20",",N","9",",N",,,,,,,,,,,,,,,,,,,,,"46.0",",,N,23,",,,,,,,,,,,,,,,,,,,,,,,,,,,,,,,,,,,,,,,,,,,,,,,,,,,,,,,,,,,,,,,,,,,,,,,,,,,,,,,,,,,,,"155.4",",,,N",,,,,,,,,,,,,,,,,,,,,,
"US1INHW0007","KOKOMO 4.0 ENE, IN US","40.497884","-86.06289","253.9","2009-10",,,,,,,"14","4,N","5","4,N",,,"0","4,N",,,,,,,,,,,,,,,"0.0","4,,N,31,+","45.0","4,,N,09,",,,,,,,,,,,,,,,,,,,,,,,,,,,,,,,,,,,,,,,,,,,,,,,,,,,,,,,,,,,,,,,,,,,,,,,,,,,,,,,,,,,,,"159.1","1,a,,N",,,"0","4,,,N",,,,,,,,,,,,,,,,,,
"USC00122041","DANVILLE 3 SW, IN US","39.7344","-86.5361","291.4","2009-10",,,,,,,"12","3,0","8","3,0","0",",0","0",",0",,,,,,,,,,,,,"0",",,0,31,+","0.0",",,0,31,+","42.9","3,,0,09,",,,,,,,,,,,,,,,,,,,,,,,,,,,,,,,,,,,,,,,,,,,,,,,,,,,,,,,,,,,,,,,,,,,,,,,,,,,,,,,,,,,,,"150.8",",a,,0",,,"0",",,,0",,,,,,,,,,,,,,,,,,
"US1INDB0001","HUNTINGBURG 0.4 SSW, IN US","38.29294","-86.9611","153.3","2009-10",,,,,,,"13",",N","10",",N",,,,,,,,,,,,,,,,,,,,,"85.3",",,N,09,",,,,,,,,,,,,,,,,,,,,,,,,,,,,,,,,,,,,,,,,,,,,,,,,,,,,,,,,,,,,,,,,,,,,,,,,,,,,,,,,,,,,,"235.8",",,,N",,,,,,,,,,,,,,,,,,,,,,
"US1INFR0001","LAUREL 3.0 W, IN US","39.507289","-85.245139","313.9","2009-10",,,,,,,"15",",N","9",",N",,,,,,,,,,,,,,,,,,,,,"24.4",",,N,02,",,,,,,,,,,,,,,,,,,,,,,,,,,,,,,,,,,,,,,,,,,,,,,,,,,,,,,,,,,,,,,,,,,,,,,,,,,,,,,,,,,,,,"127.9",",,,N",,,,,,,,,,,,,,,,,,,,,,
"USC00126400","NORTHERN INDIANA WEATHER FORECAST OFFICE, IN US","41.3588","-85.6997","289.9","2009-10",,,"311.8","0","0.0",",0","17",",0","12",",0","0",",0","0",",0","0",",0","2",",0","0",",0","0",",0","0",",0","-1.7",",0,17,","0",",,0,31,+","0.0",",T,0,15,+","29.2",",,0,23,","20.6",",0,21,",,,"328.6","0",,,,,,,,,,,,,"272.4",",0",,,,,,,,,,,,,,,,,,,,,,,,,,,,,,,,,,,,,,,,,,,,,,,,,,,,,,,,,,,,,,,,,"137.9",",,,0",,,"0",",T,,0","9.6",",0","13.9",",,,0","5.2",",,,0",,,,,,,,,,,,
"USC00126401","NORTH JUDSON 3 S, IN US","41.1734","-86.7571","213.4","2009-10",,,,,,,"16",",0","10",",0","0",",0","0",",0",,,,,,,,,,,,,"0",",,0,31,+","0.0",",,0,31,+","51.8",",,0,23,",,,,,,,,,,,,,,,,,,,,,,,,,,,,,,,,,,,,,,,,,,,,,,,,,,,,,,,,,,,,,,,,,,,,,,,,,,,,,,,,,,,,,"191.3",",,,0",,,"0",",,,0",,,,,,,,,,,,,,,,,,
"US1INDB0006","JASPER 5.7 ESE, IN US","38.364437","-86.845345","170.1","2009-10",,,,,,,"19",",N","9",",N",,,,,,,,,,,,,,,,,,,,,"80.3",",,N,09,",,,,,,,,,,,,,,,,,,,,,,,,,,,,,,,,,,,,,,,,,,,,,,,,,,,,,,,,,,,,,,,,,,,,,,,,,,,,,,,,,,,,,"220.6",",,,N",,,,,,,,,,,,,,,,,,,,,,
"US1INDB0004","HUNTINGBURG 6.2 WSW, IN US","38.2797","-87.0709","162.2","2009-10",,,,,,,"9","4,N","5","4,N",,,,,,,,,,,,,,,,,,,,,"27.9","4,,N,31,",,,,,,,,,,,,,,,,,,,,,,,,,,,,,,,,,,,,,,,,,,,,,,,,,,,,,,,,,,,,,,,,,,,,,,,,,,,,,,,,,,,,,"229.4",",a,,N",,,,,,,,,,,,,,,,,,,,,,
"US1INMR0013","SPEEDWAY 6.2 SSW, IN US","39.706689","-86.28095","243.2","2009-10",,,,,,,"14",",N","10",",N",,,,,,,,,,,,,,,,,,,,,"37.6",",,N,09,",,,,,,,,,,,,,,,,,,,,,,,,,,,,,,,,,,,,,,,,,,,,,,,,,,,,,,,,,,,,,,,,,,,,,,,,,,,,,,,,,,,,,"155.8",",,,N",,,,,,,,,,,,,,,,,,,,,,
"US1INJK0006","SEYMOUR 0.8 S, IN US","38.957167","-85.882861","179.2","2009-10",,,,,,,,,,,,,,,,,,,,,,,,,,,,,,,,,,,,,,,,,,,,,,,,,,,,,,,,,,,,,,,,,,,,,,,,,,,,,,,,,,,,,,,,,,,,,,,,,,,,,,,,,,,,,,,,,,,,,"149.3","3,a,,N",,,,,,,,,,,,,,,,,,,,,,
"US1INEL0009","ELKHART 3.1 SSE, IN US","41.622756","-86.012699","238.0","2009-10",,,,,,,"16",",N","10",",N",,,,,,,,,,,,,,,,,,,,,"27.7",",,N,31,",,,,,,,,,,,,,,,,,,,,,,,,,,,,,,,,,,,,,,,,,,,,,,,,,,,,,,,,,,,,,,,,,,,,,,,,,,,,,,,,,,,,,"132.4",",,,N",,,,,,,,,,,,,,,,,,,,,,
"US1INPT0003","VALPARAISO 2.0 WSW, IN US","41.46741","-87.08746","220.1","2009-10",,,,,,,"19",",N","11",",N",,,,,,,,,,,,,,,,,,,,,"67.8",",,N,30,",,,,,,,,,,,,,,,,,,,,,,,,,,,,,,,,,,,,,,,,,,,,,,,,,,,,,,,,,,,,,,,,,,,,,,,,,,,,,,,,,,,,,"213.7",",,,N",,,,,,,,,,,,,,,,,,,,,,
"US1INPT0001","VALPARAISO 3.9 NNW, IN US","41.531024","-87.071109","246.9","2009-10",,,,,,,"19","2,N","13","2,N","0","2,N","0","2,N",,,,,,,,,,,,,"0","2,,N,31,+","0.0","2,,N,31,+","60.2","2,,N,30,",,,,,,,,,,,,,,,,,,,,,,,,,,,,,,,,,,,,,,,,,,,,,,,,,,,,,,,,,,,,,,,,,,,,,,,,,,,,,,,,,,,,,"231.7",",a,,N",,,"0","2,,,N",,,,,,,,,,,,,,,,,,
"US1INTN0007","ATLANTA 4.1 ENE, IN US","40.232863","-85.952635","262.1","2009-10",,,,,,,"18",",N","8",",N",,,,,,,,,,,,,,,,,,,,,"33.8",",,N,09,",,,,,,,,,,,,,,,,,,,,,,,,,,,,,,,,,,,,,,,,,,,,,,,,,,,,,,,,,,,,,,,,,,,,,,,,,,,,,,,,,,,,,"145.3",",,,N",,,,,,,,,,,,,,,,,,,,,,
"US1INMR0007","BEECH GROVE 1.6 W, IN US","39.710626","-86.116886","235.9","2009-10",,,,,,,"13",",N","10",",N",,,,,,,,,,,,,,,,,,,,,"30.7",",,N,09,",,,,,,,,,,,,,,,,,,,,,,,,,,,,,,,,,,,,,,,,,,,,,,,,,,,,,,,,,,,,,,,,,,,,,,,,,,,,,,,,,,,,,"138.4",",,,N",,,,,,,,,,,,,,,,,,,,,,
"US1INEL0001","WAKARUSA 0.3 WSW, IN US","41.53322","-86.019","259.1","2009-10",,,,,,,"17",",N","12",",N",,,,,,,,,,,,,,,,,,,,,"26.7",",,N,31,",,,,,,,,,,,,,,,,,,,,,,,,,,,,,,,,,,,,,,,,,,,,,,,,,,,,,,,,,,,,,,,,,,,,,,,,,,,,,,,,,,,,,"139.0",",,,N",,,,,,,,,,,,,,,,,,,,,,
"US1INEL0003","MIDDLEBURY 2.6 WSW, IN US","41.6624","-85.760218","278.0","2009-10",,,,,,,"14",",N","11",",N",,,,,,,,,,,,,,,,,,,,,"25.7",",,N,02,",,,,,,,,,,,,,,,,,,,,,,,,,,,,,,,,,,,,,,,,,,,,,,,,,,,,,,,,,,,,,,,,,,,,,,,,,,,,,,,,,,,,,"131.9",",,,N",,,,,,,,,,,,,,,,,,,,,,
"US1INGR0007","LA FONTAINE 3.4 ESE, IN US","40.652935","-85.662348","261.2","2009-10",,,,,,,"16","5,N","9","5,N",,,,,,,,,,,,,,,,,,,,,"48.3","5,,N,23,",,,,,,,,,,,,,,,,,,,,,,,,,,,,,,,,,,,,,,,,,,,,,,,,,,,,,,,,,,,,,,,,,,,,,,,,,,,,,,,,,,,,,"169.7",",a,,N",,,,,,,,,,,,,,,,,,,,,,
"US1INEL0007","MILLERSBURG 0.5 SW, IN US","41.520929","-85.700842","271.0","2009-10",,,,,,,"14",",N","10",",N","0",",N","0",",N",,,,,,,,,,,,,"0",",T,N,15,","0.0",",T,N,15,","27.2",",,N,02,",,,,,,,,,,,,,,,,,,,,,,,,,,,,,,,,,,,,,,,,,,,,,,,,,,,,,,,,,,,,,,,,,,,,,,,,,,,,,,,,,,,,,"118.2",",,,N",,,"0",",T,,N",,,,,,,,,,,,,,,,,,
"US1INEL0008","WAKARUSA 2.4 NNE, IN US","41.56551","-85.9933","256.0","2009-10",,,,,,,"17",",N","13",",N","0","1,N","0",",N",,,,,,,,,,,,,"0","1,,N,31,+","0.0",",,N,31,+","21.6",",,N,24,",,,,,,,,,,,,,,,,,,,,,,,,,,,,,,,,,,,,,,,,,,,,,,,,,,,,,,,,,,,,,,,,,,,,,,,,,,,,,,,,,,,,,"135.0",",,,N",,,"0",",,,N",,,,,,,,,,,,,,,,,,
"US1INCK0005","CLARKSVILLE 1.3 S, IN US","38.298261","-85.762826","139.0","2009-10",,,,,,,"18",",N","10",",N",,,,,,,,,,,,,,,,,,,,,"53.8",",,N,09,",,,,,,,,,,,,,,,,,,,,,,,,,,,,,,,,,,,,,,,,,,,,,,,,,,,,,,,,,,,,,,,,,,,,,,,,,,,,,,,,,,,,,"185.7",",,,N",,,,,,,,,,,,,,,,,,,,,,
"US1INCK0006","CHARLESTOWN 2.6 N, IN US","38.490847","-85.667716","191.1","2009-10",,,,,,,"9","3,N","9","3,N",,,,,,,,,,,,,,,,,,,,,"97.0","3,,N,09,",,,,,,,,,,,,,,,,,,,,,,,,,,,,,,,,,,,,,,,,,,,,,,,,,,,,,,,,,,,,,,,,,,,,,,,,,,,,,,,,,,,,,"213.5","3,,,N",,,,,,,,,,,,,,,,,,,,,,
"US1INCK0009","CHARLESTOWN 1.5 ENE, IN US","38.462177","-85.642688","178.0","2009-10",,,,,,,"11","1,N","10","1,N",,,,,,,,,,,,,,,,,,,,,"90.2","1,,N,10,",,,,,,,,,,,,,,,,,,,,,,,,,,,,,,,,,,,,,,,,,,,,,,,,,,,,,,,,,,,,,,,,,,,,,,,,,,,,,,,,,,,,,"242.1","1,,,N",,,,,,,,,,,,,,,,,,,,,,
"US1INMR0002","LAWRENCE 2.0 ENE, IN US","39.880253","-85.953487","259.1","2009-10",,,,,,,"10",",N","8",",N",,,,,,,,,,,,,,,,,,,,,"34.3",",,N,23,",,,,,,,,,,,,,,,,,,,,,,,,,,,,,,,,,,,,,,,,,,,,,,,,,,,,,,,,,,,,,,,,,,,,,,,,,,,,,,,,,,,,,"134.4",",,,N",,,,,,,,,,,,,,,,,,,,,,
"USW00053842","INDIANAPOLIS EAGLE CREEK AIRPORT, IN US","39.82483","-86.29583","247.4","2009-10","2.7",",W","477.8","W","0.0",",W","16",",W","11",",W",,,,,"0",",W","1",",W","0",",W","0",",W","0",",W","0.0",",W,17,",,,,,"32.3",",,W,23,","20.6",",W,23,+",,,"264.4","W",,,,,,,,,,,,,"242.8",",W",,,,,,,,,,,,,,,,,,,,,,,,,,,,,,,,,,,,,,,,,,,,,,,,,,,,,,,,,,,,,,,,,"138.2",",,,W",,,,,"10.5",",W","15.0",",,,W","6.0",",,,W",,,"280",",W","300",",W",,,"11.6",",W","15.7",",W"
"US1INJY0005","PORTLAND 1.7 SSW, IN US","40.4103703","-84.9926792","276.5","2009-10",,,,,,,"12",",N","8",",N",,,,,,,,,,,,,,,,,,,,,"48.0",",,N,02,",,,,,,,,,,,,,,,,,,,,,,,,,,,,,,,,,,,,,,,,,,,,,,,,,,,,,,,,,,,,,,,,,,,,,,,,,,,,,,,,,,,,,"135.2",",,,N",,,,,,,,,,,,,,,,,,,,,,
"US1INJY0002","PORTLAND 6.3 SSE, IN US","40.345729","-84.945877","306.6","2009-10",,,,,,,"10","2,N","8","2,N",,,,,,,,,,,,,,,,,,,,,"39.4","2,,N,02,",,,,,,,,,,,,,,,,,,,,,,,,,,,,,,,,,,,,,,,,,,,,,,,,,,,,,,,,,,,,,,,,,,,,,,,,,,,,,,,,,,,,,"132.5","2,,,N",,,,,,,,,,,,,,,,,,,,,,
"USC00124642","KNIGHTSTOWN 2 ENE, IN US","39.8075","-85.4877","303.9","2009-10",,,,,,,"15",",0","9",",0","0",",0","0",",0",,,,,,,,,,,,,"0",",,0,31,+","0.0",",,0,31,+","48.3",",,0,02,",,,,,,,,,,,,,,,,,,,,,,,,,,,,,,,,,,,,,,,,,,,,,,,,,,,,,,,,,,,,,,,,,,,,,,,,,,,,,,,,,,,,,"167.2",",,,0",,,"0",",,,0",,,,,,,,,,,,,,,,,,
"US1INEL0030","GOSHEN 6.7 W, IN US","41.585325","-85.963973","249.3","2009-10",,,,,,,"18",",N","12",",N",,,,,,,,,,,,,,,,,,,,,"29.2",",,N,23,",,,,,,,,,,,,,,,,,,,,,,,,,,,,,,,,,,,,,,,,,,,,,,,,,,,,,,,,,,,,,,,,,,,,,,,,,,,,,,,,,,,,,"143.9",",,,N",,,,,,,,,,,,,,,,,,,,,,
"US1INMN0017","BLOOMINGTON 4.5 SW, IN US","39.1137545","-86.5711996","238.4","2009-10",,,,,,,"11","3,N","10","3,N",,,,,,,,,,,,,,,,,,,,,"64.3","3,,N,09,",,,,,,,,,,,,,,,,,,,,,,,,,,,,,,,,,,,,,,,,,,,,,,,,,,,,,,,,,,,,,,,,,,,,,,,,,,,,,,,,,,,,,"198.8","3,,,N",,,,,,,,,,,,,,,,,,,,,,
"US1INEL0031","NAPPANEE 3.5 NW, IN US","41.475563","-86.040129","267.9","2009-10",,,,,,,,,,,,,,,,,,,,,,,,,,,,,,,,,,,,,,,,,,,,,,,,,,,,,,,,,,,,,,,,,,,,,,,,,,,,,,,,,,,,,,,,,,,,,,,,,,,,,,,,,,,,,,,,,,,,,"94.7","5,a,,N",,,,,,,,,,,,,,,,,,,,,,
"US1INEL0032","MILLERSBURG 2.6 S, IN US","41.488333","-85.70105","265.2","2009-10",,,,,,,"16",",N","10",",N",,,,,,,,,,,,,,,,,,,,,"28.4",",,N,02,",,,,,,,,,,,,,,,,,,,,,,,,,,,,,,,,,,,,,,,,,,,,,,,,,,,,,,,,,,,,,,,,,,,,,,,,,,,,,,,,,,,,,"124.6",",,,N",,,,,,,,,,,,,,,,,,,,,,
"USC00121256","CANNELTON, IN US","37.8994","-86.7072","122.5","2009-10",,,,,,,"12",",0","10",",0","0",",0","0",",0",,,,,,,,,,,,,"0",",,0,31,+","0.0",",,0,31,+","88.9",",,0,09,",,,,,,,,,,,,,,,,,,,,,,,,,,,,,,,,,,,,,,,,,,,,,,,,,,,,,,,,,,,,,,,,,,,,,,,,,,,,,,,,,,,,,"236.3",",,,0",,,"0",",,,0",,,,,,,,,,,,,,,,,,
"USC00125613","MIDDLETOWN 2 W, IN US","40.063","-85.5777","286.5","2009-10",,,,,,,"13",",0","9",",0","0",",0","0",",0",,,,,,,,,,,,,"0",",,0,31,+","0.0",",,0,31,+","32.5",",,0,02,",,,,,,,,,,,,,,,,,,,,,,,,,,,,,,,,,,,,,,,,,,,,,,,,,,,,,,,,,,,,,,,,,,,,,,,,,,,,,,,,,,,,,"138.1",",,,0",,,"0",",,,0",,,,,,,,,,,,,,,,,,
"US1INSJ0034","WALKERTON 4.1 ENE, IN US","41.4869","-86.4082","227.4","2009-10",,,,,,,"15",",N","11",",N",,,,,,,,,,,,,,,,,,,,,"33.5",",,N,23,",,,,,,,,,,,,,,,,,,,,,,,,,,,,,,,,,,,,,,,,,,,,,,,,,,,,,,,,,,,,,,,,,,,,,,,,,,,,,,,,,,,,,"133.2",",,,N",,,,,,,,,,,,,,,,,,,,,,
"USC00126705","PAOLI, IN US","38.5555","-86.4858","170.7","2009-10",,,"433.0","0","0.0","2,0","11",",0","9",",0","0",",0","0",",0","0","1,0","4","1,0","0","1,0","3","1,0","0","1,0","-2.2","1,0,16,","0",",,0,31,+","0.0",",,0,31,+","94.5",",,0,08,","24.4","1,0,30,",,,"265.8","0",,,,,,,,,,,,,"230.0","1,0",,,,,,,,,,,,,,,,,,,,,,,,,,,,,,,,,,,,,,,,,,,,,,,,,,,,,,,,,,,,,,,,,"219.1",",,,0",,,"0",",,,0","10.6","2,0","16.5","1,,,0","4.6","1,,,0",,,,,,,,,,,,
"US1INST0003","KNOX 4.1 SW, IN US","41.244","-86.669","221.9","2009-10",,,,,,,"13","3,N","10","3,N",,,,,,,,,,,,,,,,,,,,,"49.0","3,,N,23,",,,,,,,,,,,,,,,,,,,,,,,,,,,,,,,,,,,,,,,,,,,,,,,,,,,,,,,,,,,,,,,,,,,,,,,,,,,,,,,,,,,,,"150.3","3,,,N",,,,,,,,,,,,,,,,,,,,,,
"US1INSJ0032","NEW CARLISLE 3.3 SSW, IN US","41.657684","-86.526204","251.8","2009-10",,,,,,,"19",",N","11",",N",,,,,,,,,,,,,,,,,,,,,"29.7",",,N,23,",,,,,,,,,,,,,,,,,,,,,,,,,,,,,,,,,,,,,,,,,,,,,,,,,,,,,,,,,,,,,,,,,,,,,,,,,,,,,,,,,,,,,"165.5",",,,N",,,,,,,,,,,,,,,,,,,,,,
"US1INMR0027","INDIANAPOLIS 3.2 E, IN US","39.770101","-86.08731","242.0","2009-10",,,,,,,"14",",N","9",",N",,,,,,,,,,,,,,,,,,,,,"31.8",",,N,09,",,,,,,,,,,,,,,,,,,,,,,,,,,,,,,,,,,,,,,,,,,,,,,,,,,,,,,,,,,,,,,,,,,,,,,,,,,,,,,,,,,,,,"138.1",",,,N",,,,,,,,,,,,,,,,,,,,,,
"US1INBN0014","WHITESTOWN 0.7 SSW, IN US","39.986","-86.3518","287.1","2009-10",,,,,,,"13",",N","8",",N",,,,,,,,,,,,,,,,,,,,,"42.4",",,N,09,",,,,,,,,,,,,,,,,,,,,,,,,,,,,,,,,,,,,,,,,,,,,,,,,,,,,,,,,,,,,,,,,,,,,,,,,,,,,,,,,,,,,,"148.1",",,,N",,,,,,,,,,,,,,,,,,,,,,
"US1INSJ0031","NEW CARLISLE 0.3 WNW, IN US","41.70675","-86.5157","251.2","2009-10",,,,,,,"18",",N","14",",N",,,,,,,,,,,,,,,,,,,,,"37.3",",,N,23,",,,,,,,,,,,,,,,,,,,,,,,,,,,,,,,,,,,,,,,,,,,,,,,,,,,,,,,,,,,,,,,,,,,,,,,,,,,,,,,,,,,,,"195.8",",,,N",,,,,,,,,,,,,,,,,,,,,,
"USW00014848","SOUTH BEND AIRPORT, IN US","41.70722","-86.31628","235.4","2009-10","3.9",",W","292.3","0","0.0",",0","18",",0","10",",0","0",",0","0",",0","0",",0","2",",0","0",",0","1",",0","0",",0","-1.1",",0,11,","0",",,0,31,+","0.0",",T,0,15,","32.3",",,0,23,","21.1",",0,21,",,,"348.6","0",,,,,,,,,,,,,"278.7",",0",,,,,,,,,,,,,,,,,,,,,,,,,,,,,,,,,,,,,,,,,,,,,,,,,,,,,,,,,,,,,,,,,"131.4",",,,0",,,"0",",T,,0","9.3",",0","13.4",",,,0","5.2",",,,0",,,"280",",X","280","4,X",,,"16.1",",X","22.8","4,X"
"US1INBN0010","LEBANON 4.5 NNE, IN US","40.115207","-86.455075","284.1","2009-10",,,,,,,"17",",N","9",",N",,,,,,,,,,,,,,,,,,,,,"44.2",",,N,09,",,,,,,,,,,,,,,,,,,,,,,,,,,,,,,,,,,,,,,,,,,,,,,,,,,,,,,,,,,,,,,,,,,,,,,,,,,,,,,,,,,,,,"158.5",",,,N",,,,,,,,,,,,,,,,,,,,,,
"US1INST0002","KNOX 1.2 S, IN US","41.27415","-86.6193","220.1","2009-10",,,,,,,"15",",N","12",",N",,,,,,,,,,,,,,,,,,,,,"41.7",",,N,23,",,,,,,,,,,,,,,,,,,,,,,,,,,,,,,,,,,,,,,,,,,,,,,,,,,,,,,,,,,,,,,,,,,,,,,,,,,,,,,,,,,,,,"174.9",",,,N",,,,,,,,,,,,,,,,,,,,,,
"US1INMN0009","BLOOMINGTON 1.9 S, IN US","39.139361","-86.520984","238.0","2009-10",,,,,,,"13","4,N","9","4,N",,,,,,,,,,,,,,,,,,,,,"68.6","4,,N,09,",,,,,,,,,,,,,,,,,,,,,,,,,,,,,,,,,,,,,,,,,,,,,,,,,,,,,,,,,,,,,,,,,,,,,,,,,,,,,,,,,,,,,"197.5","4,,,N",,,,,,,,,,,,,,,,,,,,,,
"US1INCS0001","GALVESTON 1.3 ESE, IN US","40.570032","-86.16709","246.9","2009-10",,,,,,,"15","4,N","8","4,N",,,,,,,,,,,,,,,,,,,,,"47.0","4,,N,23,",,,,,,,,,,,,,,,,,,,,,,,,,,,,,,,,,,,,,,,,,,,,,,,,,,,,,,,,,,,,,,,,,,,,,,,,,,,,,,,,,,,,,"201.8","4,,,N",,,,,,,,,,,,,,,,,,,,,,
"US1INMN0007","BLOOMINGTON 6.5 WNW, IN US","39.208272","-86.630458","253.9","2009-10",,,,,,,"14",",N","9",",N",,,,,,,,,,,,,,,,,,,,,"78.5",",,N,09,",,,,,,,,,,,,,,,,,,,,,,,,,,,,,,,,,,,,,,,,,,,,,,,,,,,,,,,,,,,,,,,,,,,,,,,,,,,,,,,,,,,,,"220.0",",,,N",,,,,,,,,,,,,,,,,,,,,,
"US1INMN0008","BLOOMINGTON 6.9 S, IN US","39.0662","-86.5272","223.1","2009-10",,,,,,,"12","5,N","8","5,N",,,,,,,,,,,,,,,,,,,,,"55.1","5,,N,09,",,,,,,,,,,,,,,,,,,,,,,,,,,,,,,,,,,,,,,,,,,,,,,,,,,,,,,,,,,,,,,,,,,,,,,,,,,,,,,,,,,,,,"185.8",",a,,N",,,,,,,,,,,,,,,,,,,,,,
"US1INCS0004","LOGANSPORT 0.8 E, IN US","40.753183","-86.343052","198.1","2009-10",,,,,,,"13","1,N","9","1,N",,,,,,,,,,,,,,,,,,,,,"52.3","1,,N,23,",,,,,,,,,,,,,,,,,,,,,,,,,,,,,,,,,,,,,,,,,,,,,,,,,,,,,,,,,,,,,,,,,,,,,,,,,,,,,,,,,,,,,"156.0","1,,,N",,,,,,,,,,,,,,,,,,,,,,
"US1INEL0027","ELKHART 2.0 NNW, IN US","41.714","-85.9832","235.0","2009-10",,,,,,,,,,,,,,,,,,,,,,,,,,,,,,,,,,,,,,,,,,,,,,,,,,,,,,,,,,,,,,,,,,,,,,,,,,,,,,,,,,,,,,,,,,,,,,,,,,,,,,,,,,,,,,,,,,,,,"108.6","5,a,,N",,,,,,,,,,,,,,,,,,,,,,
"US1INBN0015","KIRKLIN 5.0 WSW, IN US","40.173548","-86.450042","271.9","2009-10",,,,,,,"16",",N","8",",N",,,,,,,,,,,,,,,,,,,,,"40.4",",,N,09,",,,,,,,,,,,,,,,,,,,,,,,,,,,,,,,,,,,,,,,,,,,,,,,,,,,,,,,,,,,,,,,,,,,,,,,,,,,,,,,,,,,,,"144.8",",,,N",,,,,,,,,,,,,,,,,,,,,,
"US1INCS0006","LUCERNE 3.4 NE, IN US","40.898611","-86.355","241.1","2009-10",,,,,,,"18",",N","10",",N",,,,,,,,,,,,,,,,,,,,,"22.6",",,N,23,+",,,,,,,,,,,,,,,,,,,,,,,,,,,,,,,,,,,,,,,,,,,,,,,,,,,,,,,,,,,,,,,,,,,,,,,,,,,,,,,,,,,,,"146.7",",,,N",,,,,,,,,,,,,,,,,,,,,,
"US1INCS0007","LOGANSPORT 2.2 NNW, IN US","40.782199","-86.374012","221.6","2009-10",,,,,,,"17","3,N","8","3,N",,,,,,,,,,,,,,,,,,,,,"45.5","3,,N,23,",,,,,,,,,,,,,,,,,,,,,,,,,,,,,,,,,,,,,,,,,,,,,,,,,,,,,,,,,,,,,,,,,,,,,,,,,,,,,,,,,,,,,"162.0","3,,,N",,,,,,,,,,,,,,,,,,,,,,
"US1INBN0017","THORNTOWN 3.4 SW, IN US","40.090749","-86.650062","267.9","2009-10",,,,,,,"16","3,N","7","3,N",,,,,,,,,,,,,,,,,,,,,"40.4","3,,N,09,",,,,,,,,,,,,,,,,,,,,,,,,,,,,,,,,,,,,,,,,,,,,,,,,,,,,,,,,,,,,,,,,,,,,,,,,,,,,,,,,,,,,,"128.2","3,,,N",,,,,,,,,,,,,,,,,,,,,,
"US1INMN0001","BLOOMINGTON 3.9 E, IN US","39.164259","-86.448457","249.0","2009-10",,,,,,,"13",",N","9",",N",,,,,,,,,,,,,,,,,,,,,"84.6",",,N,09,",,,,,,,,,,,,,,,,,,,,,,,,,,,,,,,,,,,,,,,,,,,,,,,,,,,,,,,,,,,,,,,,,,,,,,,,,,,,,,,,,,,,,"222.8",",,,N",,,,,,,,,,,,,,,,,,,,,,
"US1INMN0002","BLOOMINGTON 7.1 WSW, IN US","39.141","-86.65","289.9","2009-10",,,,,,,"11","4,N","8","4,N",,,,,,,,,,,,,,,,,,,,,"82.6","4,,N,09,",,,,,,,,,,,,,,,,,,,,,,,,,,,,,,,,,,,,,,,,,,,,,,,,,,,,,,,,,,,,,,,,,,,,,,,,,,,,,,,,,,,,,"208.6","4,,,N",,,,,,,,,,,,,,,,,,,,,,
"USC00122594","ELKHART PUBLIC WORKS AND UT, IN US","41.6778","-86.0022","228.6","2009-10",,,,,,,"21",",0","11",",0","0",",0","0",",0",,,,,,,,,,,,,"0",",,0,31,+","0.0",",,0,31,+","35.1",",,0,30,",,,,,,,,,,,,,,,,,,,,,,,,,,,,,,,,,,,,,,,,,,,,,,,,,,,,,,,,,,,,,,,,,,,,,,,,,,,,,,,,,,,,,"141.9",",,,0",,,"0",",,,0",,,,,,,,,,,,,,,,,,
"US1INEL0020","GOSHEN 1.9 NW, IN US","41.594164","-85.866005","242.9","2009-10",,,,,,,"14",",N","13",",N",,,,,,,,,,,,,,,,,,,,,"28.2",",,N,31,",,,,,,,,,,,,,,,,,,,,,,,,,,,,,,,,,,,,,,,,,,,,,,,,,,,,,,,,,,,,,,,,,,,,,,,,,,,,,,,,,,,,,"144.5",",,,N",,,,,,,,,,,,,,,,,,,,,,
"US1INMN0003","ELLETTSVILLE 2.7 NE, IN US","39.261861","-86.593625","233.2","2009-10",,,,,,,"17",",N","10",",N",,,,,,,,,,,,,,,,,,,,,"64.0",",,N,09,",,,,,,,,,,,,,,,,,,,,,,,,,,,,,,,,,,,,,,,,,,,,,,,,,,,,,,,,,,,,,,,,,,,,,,,,,,,,,,,,,,,,,"208.4",",,,N",,,,,,,,,,,,,,,,,,,,,,
"USC00126830","PERRYSVILLE 4 WNW, IN US","40.0738","-87.5066","186.2","2009-10",,,"397.1","0","0.0",",0","19",",0","12",",0","0",",0","0",",0","0",",0","2",",0","0",",0","4",",0","0",",0","-2.8",",0,18,","0",",,0,31,+","0.0",",,0,31,+","43.7",",,0,09,","22.8",",0,21,",,,"287.0","0",,,,,,,,,,,,,"243.8",",0",,,,,,,,,,,,,,,,,,,,,,,,,,,,,,,,,,,,,,,,,,,,,,,,,,,,,,,,,,,,,,,,,"181.4",",,,0",,,"0",",,,0","10.5",",0","15.8",",,,0","5.1",",,,0",,,,,,,,,,,,
"US1INNW0007","BROOK 4.2 W, IN US","40.866767","-87.445439","203.0","2009-10",,,,,,,,,,,,,,,,,,,,,,,,,,,,,,,,,,,,,,,,,,,,,,,,,,,,,,,,,,,,,,,,,,,,,,,,,,,,,,,,,,,,,,,,,,,,,,,,,,,,,,,,,,,,,,,,,,,,,"204.5",",a,,N",,,,,,,,,,,,,,,,,,,,,,
"USC00120177","ANDERSON 1 N, IN US","40.1167","-85.68131","256.9","2009-10",,,"383.4","0","0.0","1,0","16",",0","10",",0","0",",0","0",",0","0","1,0","2","1,0","0",",0","2",",0","0",",0","-2.8","1,0,18,","0",",,0,31,+","0.0",",,0,31,+","27.2",",,0,23,","21.1",",0,30,+",,,"283.8","0",,,,,,,,,,,,,"240.9",",0",,,,,,,,,,,,,,,,,,,,,,,,,,,,,,,,,,,,,,,,,,,,,,,,,,,,,,,,,,,,,,,,,"148.5",",,,0",,,"0",",,,0","10.4","1,0","15.2",",,,0","5.5","1,,,0",,,,,,,,,,,,
"USC00124657","KNOX WWTP, IN US","41.3053","-86.6285","210.3","2009-10",,,,,"0.0",",0","16",",0","12",",0","0",",0","0","1,0","0",",0","1",",0","0",",0","0",",0","0",",0","-0.6",",0,11,","0",",,0,31,+","0.0","1,,0,31,+","48.3",",,0,23,","20.6",",0,22,",,,,,,,,,,,,,,,,,"289.6",",0",,,,,,,,,,,,,,,,,,,,,,,,,,,,,,,,,,,,,,,,,,,,,,,,,,,,,,,,,,,,,,,,,"167.6",",,,0",,,"0","1,,,0","9.0",",0","13.4",",,,0","4.6",",,,0",,,,,,,,,,,,
"USC00124778","LAKE VILLAGE 7 SE, IN US","41.08586","-87.38331","205.7","2009-10",,,,,,,"18",",0","14",",0","0",",0","0",",0",,,,,,,,,,,,,"0",",,0,31,+","0.0",",,0,31,+","61.2",",,0,23,",,,,,,,,,,,,,,,,,,,,,,,,,,,,,,,,,,,,,,,,,,,,,,,,,,,,,,,,,,,,,,,,,,,,,,,,,,,,,,,,,,,,,"217.2",",,,0",,,"0",",,,0",,,,,,,,,,,,,,,,,,
"US1INNW0005","KENTLAND 0.6 NNW, IN US","40.780751","-87.449527","203.9","2009-10",,,,,,,,,,,,,,,,,,,,,,,,,,,,,,,,,,,,,,,,,,,,,,,,,,,,,,,,,,,,,,,,,,,,,,,,,,,,,,,,,,,,,,,,,,,,,,,,,,,,,,,,,,,,,,,,,,,,,"175.7",",a,,N",,,,,,,,,,,,,,,,,,,,,,
"US1INSJ0029","GRANGER 3.5 ENE, IN US","41.760507","-86.079938","242.0","2009-10",,,,,,,"16","1,N","12","1,N",,,,,,,,,,,,,,,,,,,,,"31.8","1,,N,02,",,,,,,,,,,,,,,,,,,,,,,,,,,,,,,,,,,,,,,,,,,,,,,,,,,,,,,,,,,,,,,,,,,,,,,,,,,,,,,,,,,,,,"152.5","1,,,N",,,,,,,,,,,,,,,,,,,,,,
"US1INNW0006","KENTLAND 1.7 SSE, IN US","40.751059","-87.428932","216.1","2009-10",,,,,,,"22","1,N","8","1,N",,,,,,,,,,,,,,,,,,,,,"47.0","1,,N,23,",,,,,,,,,,,,,,,,,,,,,,,,,,,,,,,,,,,,,,,,,,,,,,,,,,,,,,,,,,,,,,,,,,,,,,,,,,,,,,,,,,,,,"165.1","1,,,N",,,,,,,,,,,,,,,,,,,,,,
"US1INSJ0028","SOUTH BEND 4.6 SE, IN US","41.6209","-86.2152","269.4","2009-10",,,,,,,"14","1,N","10","1,N","0","1,N","0","1,N",,,,,,,,,,,,,"0","1,,N,31,+","0.0","1,T,N,15,","36.6","1,,N,23,",,,,,,,,,,,,,,,,,,,,,,,,,,,,,,,,,,,,,,,,,,,,,,,,,,,,,,,,,,,,,,,,,,,,,,,,,,,,,,,,,,,,,"137.5","1,,,N",,,"0","1,T,,N",,,,,,,,,,,,,,,,,,
"USW00094895","MUNCIE DELAWARE CO AIRPORT, IN US","40.23451","-85.39356","285.2","2009-10","3.5",",W","391.6","W","0.0",",W","15",",W","10",",W",,,,,"0",",W","2",",W","0",",W","2",",W","0",",W","-3.2",",W,18,",,,,,"26.2",",,W,23,","23.9",",W,30,",,,"300.8","W",,,,,,,,,,,,,"258.2",",W",,,,,,,,,,,,,,,,,,,,,,,,,,,,,,,,,,,,,,,,,,,,,,,,,,,,,,,,,,,,,,,,,"135.4",",,,W",,,,,"10.0",",W","14.8",",,,W","5.2",",,,W",,,"300",",W","300",",W",,,"13.4",",W","20.1",",W"
"USC00123206","GARRETT, IN US","41.3415","-85.1292","268.2","2009-10",,,"272.7","0","0.0",",0","15",",0","10",",0","0",",0","0",",0","0",",0","6",",0","0",",0","1",",0","0",",0","-2.8",",0,18,","0",",,0,31,+","0.0",",,0,31,+","27.4",",,0,02,","21.7",",0,22,",,,"358.5","0",,,,,,,,,,,,,"296.0",",0",,,,,,,,,,,,,,,,,,,,,,,,,,,,,,,,,,,,,,,,,,,,,,,,,,,,,,,,,,,,,,,,,"132.9",",,,0",,,"0",",,,0","8.8",",0","13.8",",,,0","3.8",",,,0",,,,,,,,,,,,
"US1INNW0003","KENTLAND 0.3 ENE, IN US","40.774332","-87.440872","210.0","2009-10",,,,,,,"20","2,N","8","2,N",,,,,,,,,,,,,,,,,,,,,"51.3","2,,N,23,",,,,,,,,,,,,,,,,,,,,,,,,,,,,,,,,,,,,,,,,,,,,,,,,,,,,,,,,,,,,,,,,,,,,,,,,,,,,,,,,,,,,,"174.0",",a,,N",,,,,,,,,,,,,,,,,,,,,,
"US1INSJ0027","SOUTH BEND 1.7 NNW, IN US","41.698819","-86.272885","218.8","2009-10",,,,,,,,,,,,,,,,,,,,,,,,,,,,,,,,,,,,,,,,,,,,,,,,,,,,,,,,,,,,,,,,,,,,,,,,,,,,,,,,,,,,,,,,,,,,,,,,,,,,,,,,,,,,,,,,,,,,,"113.8",",a,,N",,,,,,,,,,,,,,,,,,,,,,
"US1INSJ0026","MISHAWAKA 3.9 ENE, IN US","41.683294","-86.095364","230.1","2009-10",,,,,,,"13","5,N","8","5,N",,,,,,,,,,,,,,,,,,,,,"29.0","5,,N,02,",,,,,,,,,,,,,,,,,,,,,,,,,,,,,,,,,,,,,,,,,,,,,,,,,,,,,,,,,,,,,,,,,,,,,,,,,,,,,,,,,,,,,"144.5",",a,,N",,,,,,,,,,,,,,,,,,,,,,
"US1INNW0001","MOUNT AYR 1.6 NNE, IN US","40.973306","-87.290494","206.0","2009-10",,,,,,,"21","1,N","9","1,N",,,,,,,,,,,,,,,,,,,,,"56.6","1,,N,23,",,,,,,,,,,,,,,,,,,,,,,,,,,,,,,,,,,,,,,,,,,,,,,,,,,,,,,,,,,,,,,,,,,,,,,,,,,,,,,,,,,,,,"183.7","1,,,N",,,,,,,,,,,,,,,,,,,,,,
"US1INST0007","NORTH JUDSON 2.0 ESE, IN US","41.2009629","-86.7433527","215.5","2009-10",,,,,,,"23",",N","12",",N",,,,,,,,,,,,,,,,,,,,,"39.4",",,N,24,",,,,,,,,,,,,,,,,,,,,,,,,,,,,,,,,,,,,,,,,,,,,,,,,,,,,,,,,,,,,,,,,,,,,,,,,,,,,,,,,,,,,,"187.6",",,,N",,,,,,,,,,,,,,,,,,,,,,
"USC00123207","GARRETT 1 S, IN US","41.3366","-85.1198","265.2","2009-10",,,,,"0.0",",0","17",",0","13",",0","0",",0","0",",0","0",",0","6",",0","0",",0","0",",0","0",",0","-3.9",",0,18,","0",",,0,31,+","0.0",",T,0,15,","34.3",",,0,23,","20.6",",0,21,",,,"368.5","0",,,,,,,,,,,,,"288.5",",0",,,,,,,,,,,,,,,,,,,,,,,,,,,,,,,,,,,,,,,,,,,,,,,,,,,,,,,,,,,,,,,,,"137.5",",,,0",,,"0",",T,,0","9.0",",0","13.8",",,,0","4.3",",,,0",,,,,,,,,,,,
"US1INSJ0024","MISHAWAKA 2.5 SE, IN US","41.648","-86.129","224.0","2009-10",,,,,,,"14","2,N","12","2,N",,,,,,,,,,,,,,,,,,,,,"30.5","2,,N,02,",,,,,,,,,,,,,,,,,,,,,,,,,,,,,,,,,,,,,,,,,,,,,,,,,,,,,,,,,,,,,,,,,,,,,,,,,,,,,,,,,,,,,"154.4","2,,,N",,,,,,,,,,,,,,,,,,,,,,
"US1INBN0001","LEBANON 3.9 WSW, IN US","40.035","-86.544736","285.9","2009-10",,,,,,,"14",",N","8",",N",,,,,,,,,,,,,,,,,,,,,"46.0",",,N,09,",,,,,,,,,,,,,,,,,,,,,,,,,,,,,,,,,,,,,,,,,,,,,,,,,,,,,,,,,,,,,,,,,,,,,,,,,,,,,,,,,,,,,"152.3",",,,N",,,,,,,,,,,,,,,,,,,,,,
"US1INSJ0020","SOUTH BEND 1.5 NE, IN US","41.690941","-86.245922","226.2","2009-10",,,,,,,"16",",N","12",",N",,,,,,,,,,,,,,,,,,,,,"29.2",",,N,23,",,,,,,,,,,,,,,,,,,,,,,,,,,,,,,,,,,,,,,,,,,,,,,,,,,,,,,,,,,,,,,,,,,,,,,,,,,,,,,,,,,,,,"148.4",",,,N",,,,,,,,,,,,,,,,,,,,,,
"US1INBN0009","THORNTOWN 2.9 WSW, IN US","40.105264","-86.656594","259.1","2009-10",,,,,,,"16",",N","9",",N",,,,,,,,,,,,,,,,,,,,,"45.2",",,N,09,",,,,,,,,,,,,,,,,,,,,,,,,,,,,,,,,,,,,,,,,,,,,,,,,,,,,,,,,,,,,,,,,,,,,,,,,,,,,,,,,,,,,,"160.6",",,,N",,,,,,,,,,,,,,,,,,,,,,
"US1INEL0017","SYRACUSE 4.4 NNW, IN US","41.48472","-85.7701","252.1","2009-10",,,,,,,"15",",N","12",",N",,,,,,,,,,,,,,,,,,,,,"27.7",",,N,02,",,,,,,,,,,,,,,,,,,,,,,,,,,,,,,,,,,,,,,,,,,,,,,,,,,,,,,,,,,,,,,,,,,,,,,,,,,,,,,,,,,,,,"126.5",",,,N",,,,,,,,,,,,,,,,,,,,,,
"US1INBN0007","LIZTON 4.5 NNE, IN US","39.94974","-86.52496","292.0","2009-10",,,,,,,"15",",N","11",",N",,,,,,,,,,,,,,,,,,,,,"46.0",",,N,09,",,,,,,,,,,,,,,,,,,,,,,,,,,,,,,,,,,,,,,,,,,,,,,,,,,,,,,,,,,,,,,,,,,,,,,,,,,,,,,,,,,,,,"160.3",",,,N",,,,,,,,,,,,,,,,,,,,,,
"US1INEL0019","GOSHEN 1.2 WNW, IN US","41.582699","-85.858244","243.8","2009-10",,,,,,,"13","2,N","10","2,N",,,,,,,,,,,,,,,,,,,,,"24.1","2,,N,02,",,,,,,,,,,,,,,,,,,,,,,,,,,,,,,,,,,,,,,,,,,,,,,,,,,,,,,,,,,,,,,,,,,,,,,,,,,,,,,,,,,,,,"104.4","2,,,N",,,,,,,,,,,,,,,,,,,,,,
"USC00120182","ANDERSON WATERWORKS, IN US","40.1051","-85.6716","265.2","2009-10",,,,,,,"13",",0","11",",0","0",",0","0",",0",,,,,,,,,,,,,"0",",,0,31,+","0.0",",,0,31,+","34.3",",,0,09,",,,,,,,,,,,,,,,,,,,,,,,,,,,,,,,,,,,,,,,,,,,,,,,,,,,,,,,,,,,,,,,,,,,,,,,,,,,,,,,,,,,,,"151.0",",,,0",,,"0",",,,0",,,,,,,,,,,,,,,,,,
"USC00124782","LAKEVILLE, IN US","41.5269","-86.2692","256.3","2009-10",,,"241.4","0","0.0","2,0","15",",0","13",",0","0",",0","0",",0","0","1,0","3","1,0","0","1,0","0","1,0","0","1,0","-0.6","1,0,11,","0",",,0,31,+","0.0",",,0,31,+","39.9",",,0,22,","20.0","1,0,22,+",,,"349.7","0",,,,,,,,,,,,,"267.7","1,0",,,,,,,,,,,,,,,,,,,,,,,,,,,,,,,,,,,,,,,,,,,,,,,,,,,,,,,,,,,,,,,,,"148.2",",,,0",,,"0",",,,0","9.1","2,0","13.8","1,,,0","4.3","1,,,0",,,,,,,,,,,,
"USC00121030","BROOKVILLE, IN US","39.42387","-85.01445","192.0","2009-10",,,,,"0.0",",0","13",",0","11",",0","0",",0","0",",0","0",",0","5",",0","0",",0","6",",0","0",",0","-2.8",",0,19,","0",",,0,31,+","0.0",",,0,31,+","34.5",",,0,09,","26.7",",0,31,",,,,,,,,,,,,,,,,,"236.8",",0",,,,,,,,,,,,,,,,,,,,,,,,,,,,,,,,,,,,,,,,,,,,,,,,,,,,,,,,,,,,,,,,,"132.2",",,,0",,,"0",",,,0","10.7",",0","16.9",",,,0","4.5",",,,0",,,,,,,,,,,,
"USC00124662","KOKOMO 3 WSW, IN US","40.4582","-86.1758","250.5","2009-10",,,"293.1","0","0.0","1,0","15",",0","9",",0","0",",0","0",",0","0",",0","4",",0","0","1,0","2","1,0","0","1,0","-2.2",",0,18,+","0",",,0,31,+","0.0",",,0,31,+","49.5",",,0,23,","21.7","1,0,22,",,,"320.4","0",,,,,,,,,,,,,"262.8","1,0",,,,,,,,,,,,,,,,,,,,,,,,,,,,,,,,,,,,,,,,,,,,,,,,,,,,,,,,,,,,,,,,,"196.3",",,,0",,,"0",",,,0","9.6","1,0","14.6","1,,,0","4.6",",,,0",,,,,,,,,,,,
"USC00124300","INGLEFIELD 3 NE, IN US","38.1233","-87.5319","139.3","2009-10",,,,,,,"3",",0","3",",0","0",",0","0",",0",,,,,,,,,,,,,"0",",,0,31,+","0.0",",,0,31,+","33.0",",,0,15,",,,,,,,,,,,,,,,,,,,,,,,,,,,,,,,,,,,,,,,,,,,,,,,,,,,,,,,,,,,,,,,,,,,,,,,,,,,,,,,,,,,,,"49.5",",,,0",,,"0",",,,0",,,,,,,,,,,,,,,,,,
"US1INMR0053","INDIANAPOLIS 4.4 N, IN US","39.839722","-86.153611","221.3","2009-10",,,,,,,"14","1,N","10","1,N",,,,,,,,,,,,,,,,,,,,,"33.3","1,,N,09,",,,,,,,,,,,,,,,,,,,,,,,,,,,,,,,,,,,,,,,,,,,,,,,,,,,,,,,,,,,,,,,,,,,,,,,,,,,,,,,,,,,,,"144.4","1,,,N",,,,,,,,,,,,,,,,,,,,,,
"USC00127935","SEYMOUR 1 WSW, IN US","38.9543","-85.90452","172.8","2009-10",,,"385.9","0","0.0",",0","11",",0","10",",0","0",",0","0",",0","0",",0","3",",0","0",",0","2",",0","0",",0","-2.2",",0,19,+","0",",,0,31,+","0.0",",,0,31,+","55.6",",,0,09,","25.0",",0,31,",,,"277.4","0",,,,,,,,,,,,,"246.4",",0",,,,,,,,,,,,,,,,,,,,,,,,,,,,,,,,,,,,,,,,,,,,,,,,,,,,,,,,,,,,,,,,,"193.5",",,,0",,,"0",",,,0","10.4",",0","15.8",",,,0","5.0",",,,0",,,,,,,,,,,,
"US1INMR0052","INDIANAPOLIS 9.2 NNE, IN US","39.899386","-86.128301","228.6","2009-10",,,,,,,"15","3,N","11","3,N",,,,,,,,,,,,,,,,,,,,,"35.3","3,,N,09,",,,,,,,,,,,,,,,,,,,,,,,,,,,,,,,,,,,,,,,,,,,,,,,,,,,,,,,,,,,,,,,,,,,,,,,,,,,,,,,,,,,,,"139.3","3,,,N",,,,,,,,,,,,,,,,,,,,,,
"US1INSJ0017","WALKERTON 5.7 ENE, IN US","41.501903","-86.385132","232.9","2009-10",,,,,,,"14","2,N","11","2,N",,,,,,,,,,,,,,,,,,,,,"30.2","2,,N,23,",,,,,,,,,,,,,,,,,,,,,,,,,,,,,,,,,,,,,,,,,,,,,,,,,,,,,,,,,,,,,,,,,,,,,,,,,,,,,,,,,,,,,"146.5",",a,,N",,,,,,,,,,,,,,,,,,,,,,
"US1INMR0051","INDIANAPOLIS 6.2 SE, IN US","39.718802","-86.056707","256.0","2009-10",,,,,,,"11",",N","9",",N",,,,,,,,,,,,,,,,,,,,,"30.2",",,N,09,",,,,,,,,,,,,,,,,,,,,,,,,,,,,,,,,,,,,,,,,,,,,,,,,,,,,,,,,,,,,,,,,,,,,,,,,,,,,,,,,,,,,,"132.1",",,,N",,,,,,,,,,,,,,,,,,,,,,
"USC00124667","KOKOMO 5 WSW, IN US","40.4614","-86.2122","248.1","2009-10",,,,,,,"13",",0","8",",0","0",",0","0",",0",,,,,,,,,,,,,"0",",,0,31,+","0.0",",,0,31,+","49.8",",,0,23,",,,,,,,,,,,,,,,,,,,,,,,,,,,,,,,,,,,,,,,,,,,,,,,,,,,,,,,,,,,,,,,,,,,,,,,,,,,,,,,,,,,,,"188.1",",,,0",,,"0",",,,0",,,,,,,,,,,,,,,,,,
"US1INSJ0016","GRANGER 2.9 W, IN US","41.737267","-86.19491","246.9","2009-10",,,,,,,,,,,,,,,,,,,,,,,,,,,,,,,,,,,,,,,,,,,,,,,,,,,,,,,,,,,,,,,,,,,,,,,,,,,,,,,,,,,,,,,,,,,,,,,,,,,,,,,,,,,,,,,,,,,,,"154.3","2,a,,N",,,,,,,,,,,,,,,,,,,,,,
"US1INPL0002","ROYAL CENTER 6.0 NW, IN US","40.924955","-86.584035","224.0","2009-10",,,,,,,"14","3,N","9","3,N",,,,,,,,,,,,,,,,,,,,,"41.1","3,,N,23,",,,,,,,,,,,,,,,,,,,,,,,,,,,,,,,,,,,,,,,,,,,,,,,,,,,,,,,,,,,,,,,,,,,,,,,,,,,,,,,,,,,,,"147.1",",a,,N",,,,,,,,,,,,,,,,,,,,,,
"US1INMR0050","INDIANAPOLIS 4.8 N, IN US","39.846136","-86.135284","226.2","2009-10",,,,,,,"12","2,N","9","2,N",,,,,,,,,,,,,,,,,,,,,"35.1","2,,N,09,",,,,,,,,,,,,,,,,,,,,,,,,,,,,,,,,,,,,,,,,,,,,,,,,,,,,,,,,,,,,,,,,,,,,,,,,,,,,,,,,,,,,,"144.2",",a,,N",,,,,,,,,,,,,,,,,,,,,,
"US1INMR0057","CARMEL 3.7 SSE, IN US","39.919","-86.0885","223.4","2009-10",,,,,,,"13",",N","8",",N",,,,,,,,,,,,,,,,,,,,,"31.5",",,N,09,",,,,,,,,,,,,,,,,,,,,,,,,,,,,,,,,,,,,,,,,,,,,,,,,,,,,,,,,,,,,,,,,,,,,,,,,,,,,,,,,,,,,,"131.4",",,,N",,,,,,,,,,,,,,,,,,,,,,
"US1INSJ0013","GRANGER 1.6 N, IN US","41.75824","-86.14387","242.0","2009-10",,,,,,,"11","5,N","8","5,N",,,"0","5,N",,,,,,,,,,,,,,,"0.0","5,T,N,16,+","31.5","5,,N,02,",,,,,,,,,,,,,,,,,,,,,,,,,,,,,,,,,,,,,,,,,,,,,,,,,,,,,,,,,,,,,,,,,,,,,,,,,,,,,,,,,,,,,"154.4",",a,,N",,,"0","5,T,,N",,,,,,,,,,,,,,,,,,
"US1INMR0055","INDIANAPOLIS 9.5 NE, IN US","39.89258728","-86.08235626","235.3","2009-10",,,,,,,"11","3,N","8","3,N",,,,,,,,,,,,,,,,,,,,,"30.7","3,,N,23,",,,,,,,,,,,,,,,,,,,,,,,,,,,,,,,,,,,,,,,,,,,,,,,,,,,,,,,,,,,,,,,,,,,,,,,,,,,,,,,,,,,,,"135.8",",a,,N",,,,,,,,,,,,,,,,,,,,,,
"US1INBN0034","LEBANON 0.6 NNW, IN US","40.059555","-86.478506","287.1","2009-10",,,,,,,"11","5,N","9","5,N",,,,,,,,,,,,,,,,,,,,,"45.7","5,,N,09,",,,,,,,,,,,,,,,,,,,,,,,,,,,,,,,,,,,,,,,,,,,,,,,,,,,,,,,,,,,,,,,,,,,,,,,,,,,,,,,,,,,,,"136.6","5,,,N",,,,,,,,,,,,,,,,,,,,,,
"US1INBN0033","LEBANON 3.7 N, IN US","40.104661","-86.472542","284.1","2009-10",,,,,,,"13",",N","8",",N",,,,,,,,,,,,,,,,,,,,,"45.5",",,N,09,",,,,,,,,,,,,,,,,,,,,,,,,,,,,,,,,,,,,,,,,,,,,,,,,,,,,,,,,,,,,,,,,,,,,,,,,,,,,,,,,,,,,,"149.4",",,,N",,,,,,,,,,,,,,,,,,,,,,
"US1INBN0036","ZIONSVILLE 2.0 NW, IN US","39.9746097","-86.2974931","278.0","2009-10",,,,,,,"12","4,N","9","4,N",,,,,,,,,,,,,,,,,,,,,"41.1","4,,N,09,",,,,,,,,,,,,,,,,,,,,,,,,,,,,,,,,,,,,,,,,,,,,,,,,,,,,,,,,,,,,,,,,,,,,,,,,,,,,,,,,,,,,,"143.1","1,a,,N",,,,,,,,,,,,,,,,,,,,,,
"US1INBN0039","JAMESTOWN 0.3 S, IN US","39.923776","-86.628467","287.4","2009-10",,,,,,,,,,,,,,,,,,,,,,,,,,,,,,,,,,,,,,,,,,,,,,,,,,,,,,,,,,,,,,,,,,,,,,,,,,,,,,,,,,,,,,,,,,,,,,,,,,,,,,,,,,,,,,,,,,,,,"163.2","4,a,,N",,,,,,,,,,,,,,,,,,,,,,
"USW00003868","TERRE HAUTE HULMAN REGIONAL AIRPORT, IN US","39.4429","-87.32206","172.7","2009-10","3.2",",W","447.4","W","0.0",",W","10",",W","9",",W",,,,,"0",",W","2",",W","0",",W","0",",W","0",",W","-2.7",",W,18,",,,,,"31.7",",,W,08,","20.6",",W,05,",,,"276.9","W",,,,,,,,,,,,,"246.7",",W",,,,,,,,,,,,,,,,,,,,,,,,,,,,,,,,,,,,,,,,,,,,,,,,,,,,,,,,,,,,,,,,,"114.8",",,,W",,,,,"10.4",",W","15.3",",,,W","5.5",",,,W",,,"160",",W","160",",W",,,"13.0",",W","17.0",",W"
"USC00123104","FREELANDVILLE, IN US","38.8672","-87.3083","167.6","2009-10",,,,,"0.0",",0","12",",0","9",",0","0",",0","0",",0","0",",0","0",",0","0",",0","0",",0","0",",0","1.1",",0,19,+","0",",,0,31,+","0.0",",,0,31,+","65.3",",,0,09,","20.6",",0,27,+",,,,,,,,,,,,,,,,,"220.9",",0",,,,,,,,,,,,,,,,,,,,,,,,,,,,,,,,,,,,,,,,,,,,,,,,,,,,,,,,,,,,,,,,,"192.8",",,,0",,,"0",",,,0","11.2",",0","15.9",",,,0","6.5",",,,0",,,,,,,,,,,,
"USC00125888","MOROCCO 1 NW, IN US","40.95855","-87.47784","205.4","2009-10",,,,,,,"19",",0","10",",0","0",",0","0",",0",,,,,,,,,,,,,"0",",,0,31,+","0.0",",,0,31,+","57.2",",,0,23,",,,,,,,,,,,,,,,,,,,,,,,,,,,,,,,,,,,,,,,,,,,,,,,,,,,,,,,,,,,,,,,,,,,,,,,,,,,,,,,,,,,,,"210.6",",,,0",,,"0",",,,0",,,,,,,,,,,,,,,,,,
"US1INSJ0005","SOUTH BEND 3.3 SSW, IN US","41.631471","-86.291061","256.0","2009-10",,,,,,,,,,,,,,,,,,,,,,,,,,,,,,,,,,,,,,,,,,,,,,,,,,,,,,,,,,,,,,,,,,,,,,,,,,,,,,,,,,,,,,,,,,,,,,,,,,,,,,,,,,,,,,,,,,,,,"151.0","3,a,,N",,,,,,,,,,,,,,,,,,,,,,
"US1INMR0046","CAMBY 1.7 SW, IN US","39.63944","-86.325722","232.9","2009-10",,,,,,,"7","2,N","6","2,N",,,,,,,,,,,,,,,,,,,,,"37.8","2,,N,09,",,,,,,,,,,,,,,,,,,,,,,,,,,,,,,,,,,,,,,,,,,,,,,,,,,,,,,,,,,,,,,,,,,,,,,,,,,,,,,,,,,,,,"134.6",",a,,N",,,,,,,,,,,,,,,,,,,,,,
"USC00125407","MARTINSVILLE 2 SW, IN US","39.40427","-86.45262","180.4","2009-10",,,"322.3","0","0.0",",0","13",",0","10",",0","0",",0","0",",0","0",",0","4",",0","0",",0","0",",0","0",",0","-1.7",",0,19,+","0",",,0,31,+","0.0",",,0,31,+","41.1",",,0,09,","20.6",",0,31,+",,,"311.5","0",,,,,,,,,,,,,"264.8",",0",,,,,,,,,,,,,,,,,,,,,,,,,,,,,,,,,,,,,,,,,,,,,,,,,,,,,,,,,,,,,,,,,"162.5",",,,0",,,"0",",,,0","9.8",",0","15.1",",,,0","4.5",",,,0",,,,,,,,,,,,
"USW00004846","VALPARAISO PORTER CO MUNICIPAL AIRPORT, IN US","41.4535","-86.997964","234.0","2009-10","3.6",",W","268.3","W","0.0",",W","17",",W","10",",W",,,,,"0",",W","0",",W","0",",W","0",",W","0",",W","0.6",",W,18,+",,,,,"58.9",",,W,30,","20.6",",W,21,",,,"349.4","W",,,,,,,,,,,,,"278.9",",W",,,,,,,,,,,,,,,,,,,,,,,,,,,,,,,,,,,,,,,,,,,,,,,,,,,,,,,,,,,,,,,,,"174.6",",,,W",,,,,"9.3",",W","13.4",",,,W","5.3",",,,W",,,"280",",W","280",",W",,,"15.7",",W","20.6",",W"
"US1INEL0034","ELKHART 3.1 S, IN US","41.6425","-85.9675","238.4","2009-10",,,,,,,"16","4,N","9","4,N",,,,,,,,,,,,,,,,,,,,,"23.1","4,,N,31,",,,,,,,,,,,,,,,,,,,,,,,,,,,,,,,,,,,,,,,,,,,,,,,,,,,,,,,,,,,,,,,,,,,,,,,,,,,,,,,,,,,,,"119.9","2,a,,N",,,,,,,,,,,,,,,,,,,,,,
"US1INEL0036","ELKHART 4.8 SW, IN US","41.642487","-86.04149","226.2","2009-10",,,,,,,"22",",N","11",",N",,,,,,,,,,,,,,,,,,,,,"29.7",",,N,23,",,,,,,,,,,,,,,,,,,,,,,,,,,,,,,,,,,,,,,,,,,,,,,,,,,,,,,,,,,,,,,,,,,,,,,,,,,,,,,,,,,,,,"137.7",",,,N",,,,,,,,,,,,,,,,,,,,,,
"US1INEL0037","NAPPANEE 2.5 NE, IN US","41.471918","-85.951784","280.1","2009-10",,,,,,,"13","4,N","11","4,N",,,"0","4,N",,,,,,,,,,,,,,,"0.0","4,T,N,16,+","27.9","4,,N,23,+",,,,,,,,,,,,,,,,,,,,,,,,,,,,,,,,,,,,,,,,,,,,,,,,,,,,,,,,,,,,,,,,,,,,,,,,,,,,,,,,,,,,,"136.8","1,a,,N",,,"0","4,T,,N",,,,,,,,,,,,,,,,,,
"US1INBN0027","LEBANON 5.8 ENE, IN US","40.090287","-86.37558","289.9","2009-10",,,,,,,"12",",N","8",",N",,,,,,,,,,,,,,,,,,,,,"36.3",",,N,09,",,,,,,,,,,,,,,,,,,,,,,,,,,,,,,,,,,,,,,,,,,,,,,,,,,,,,,,,,,,,,,,,,,,,,,,,,,,,,,,,,,,,,"131.3",",,,N",,,,,,,,,,,,,,,,,,,,,,
"US1INBN0026","LEBANON 1.7 NNE, IN US","40.076017","-86.465072","288.0","2009-10",,,,,,,"14",",N","8",",N",,,,,,,,,,,,,,,,,,,,,"40.9",",,N,09,",,,,,,,,,,,,,,,,,,,,,,,,,,,,,,,,,,,,,,,,,,,,,,,,,,,,,,,,,,,,,,,,,,,,,,,,,,,,,,,,,,,,,"130.8",",,,N",,,,,,,,,,,,,,,,,,,,,,
"US1INJH0004","FRANKLIN 3.0 S, IN US","39.448667","-86.056744","221.9","2009-10",,,,,,,"14",",N","9",",N",,,,,,,,,,,,,,,,,,,,,"34.3",",,N,02,",,,,,,,,,,,,,,,,,,,,,,,,,,,,,,,,,,,,,,,,,,,,,,,,,,,,,,,,,,,,,,,,,,,,,,,,,,,,,,,,,,,,,"157.3",",,,N",,,,,,,,,,,,,,,,,,,,,,
"US1INBN0028","SHERIDAN 3.9 SSW, IN US","40.085011","-86.254813","285.9","2009-10",,,,,,,"13",",N","8",",N",,,,,,,,,,,,,,,,,,,,,"39.4",",,N,09,",,,,,,,,,,,,,,,,,,,,,,,,,,,,,,,,,,,,,,,,,,,,,,,,,,,,,,,,,,,,,,,,,,,,,,,,,,,,,,,,,,,,,"148.6",",,,N",,,,,,,,,,,,,,,,,,,,,,
"US1INJS0011","WHEATFIELD 1.8 ENE, IN US","41.201213","-87.019525","207.9","2009-10",,,,,,,"21",",N","11",",N",,,,,,,,,,,,,,,,,,,,,"54.6",",,N,23,",,,,,,,,,,,,,,,,,,,,,,,,,,,,,,,,,,,,,,,,,,,,,,,,,,,,,,,,,,,,,,,,,,,,,,,,,,,,,,,,,,,,,"197.9",",,,N",,,,,,,,,,,,,,,,,,,,,,
"US1INJS0016","RENSSELAER 8.4 ENE, IN US","40.992814","-87.006028","214.9","2009-10",,,,,,,"19",",N","12",",N",,,,,,,,,,,,,,,,,,,,,"44.7",",,N,23,",,,,,,,,,,,,,,,,,,,,,,,,,,,,,,,,,,,,,,,,,,,,,,,,,,,,,,,,,,,,,,,,,,,,,,,,,,,,,,,,,,,,,"168.1",",,,N",,,,,,,,,,,,,,,,,,,,,,
"US1INSL0002","SULLIVAN 0.3 WSW, IN US","39.095394","-87.41221","159.1","2009-10",,,,,,,"14",",N","8",",N",,,,,,,,,,,,,,,,,,,,,"74.9",",,N,09,",,,,,,,,,,,,,,,,,,,,,,,,,,,,,,,,,,,,,,,,,,,,,,,,,,,,,,,,,,,,,,,,,,,,,,,,,,,,,,,,,,,,,"199.1",",,,N",,,,,,,,,,,,,,,,,,,,,,
"US1INCR0002","CAMDEN 4.9 NNE, IN US","40.6775","-86.51025","221.9","2009-10",,,,,,,,,,,,,,,,,,,,,,,,,,,,,,,,,,,,,,,,,,,,,,,,,,,,,,,,,,,,,,,,,,,,,,,,,,,,,,,,,,,,,,,,,,,,,,,,,,,,,,,,,,,,,,,,,,,,,"147.7","2,a,,N",,,,,,,,,,,,,,,,,,,,,,
"USC00123513","GREENCASTLE 1 E, IN US","39.644","-86.8766","224.0","2009-10",,,,,"0.0",",0","16",",0","9",",0","0",",0","0",",0","0",",0","5",",0","0",",0","0",",0","0",",0","-2.2",",0,19,","0",",,0,31,+","0.0",",,0,31,+","46.0",",,0,09,","20.0",",0,31,+",,,"332.1","0",,,,,,,,,,,,,"272.5",",0",,,,,,,,,,,,,,,,,,,,,,,,,,,,,,,,,,,,,,,,,,,,,,,,,,,,,,,,,,,,,,,,,"178.5",",,,0",,,"0",",,,0","9.5",",0","14.7",",,,0","4.4",",,,0",,,,,,,,,,,,
"USC00122309","DUBOIS S IN FORAGE FARM, IN US","38.4558","-86.6983","210.3","2009-10",,,"482.5","0","0.0","2,0","13",",0","10",",0","0",",0","0",",0","0","2,0","1","2,0","0","1,0","7","1,0","0","1,0","-1.7","2,0,18,","0",",,0,31,+","0.0",",,0,31,+","104.6",",,0,09,","28.9","1,0,07,",,,"221.9","0","13.3","1,,,0,3,1","13.3","1,,,0,3,2","15.6","1,,,0,3,3","18.3","1,,,0,3,4","17.2","1,,,0,3,5","16.7","2,,,0,5,2","198.6","1,0","21.1","1,,,0,3,1","21.7","1,,,0,3,2","16.1","1,,,0,3,3","19.4","1,,,0,3,4","20.6","1,,,0,3,5","18.3","2,,,0,5,2","6.1","1,,,0,3,1","6.7","1,,,0,3,2","10.6","1,,,0,3,3","12.8","1,,,0,3,4","12.2","1,,,0,3,5","9.4","2,,,0,5,2","11.1","1,,,0,3,1","11.7","1,,,0,3,2","10.6","1,,,0,3,3","12.8","1,,,0,3,4","12.8","1,,,0,3,5","12.2","2,,,0,5,2","10.7","1,,,0,3,1","10.5","1,,,0,3,2","12.7","1,,,0,3,3","15.1","1,,,0,3,4","14.3","1,,,0,3,5","13.5","2,,,0,5,2",,,"16.1","1,,,0,3,1","16.6","1,,,0,3,2","13.0","1,,,0,3,3","15.6","1,,,0,3,4","15.0","1,,,0,3,5","15.4","2,,,0,5,2",,,"250.2",",,,0",,,"0",",,,0","11.5","2,0","17.5","1,,,0","5.4","2,,,0",,,,,,,,,,,,
"US1INJS0001","WHEATFIELD 2.8 S, IN US","41.152314","-87.035915","206.0","2009-10",,,,,,,"21",",N","11",",N",,,,,,,,,,,,,,,,,,,,,"42.7",",,N,23,",,,,,,,,,,,,,,,,,,,,,,,,,,,,,,,,,,,,,,,,,,,,,,,,,,,,,,,,,,,,,,,,,,,,,,,,,,,,,,,,,,,,,"190.3",",,,N",,,,,,,,,,,,,,,,,,,,,,
"US1INLK0003","MERRILLVILLE 4.5 E, IN US","41.461741","-87.238986","207.0","2009-10",,,,,,,"18","3,N","14","3,N",,,,,,,,,,,,,,,,,,,,,"63.8","3,,N,30,",,,,,,,,,,,,,,,,,,,,,,,,,,,,,,,,,,,,,,,,,,,,,,,,,,,,,,,,,,,,,,,,,,,,,,,,,,,,,,,,,,,,,"261.6","3,,,N",,,,,,,,,,,,,,,,,,,,,,
"USC00124730","LAGRANGE, IN US","41.6474","-85.4121","274.3","2009-10",,,"257.5","0","0.0",",0","16",",0","10",",0","0",",0","0",",0","0",",0","4",",0","0",",0","1",",0","0",",0","-3.3",",0,17,","0",",,0,31,+","0.0",",,0,31,+","32.3",",,0,02,","21.1",",0,22,",,,"358.2","0",,,,,,,,,,,,,"289.6",",0",,,,,,,,,,,,,,,,,,,,,,,,,,,,,,,,,,,,,,,,,,,,,,,,,,,,,,,,,,,,,,,,,"124.5",",,,0",,,"0",",,,0","9.0",",0","13.8",",,,0","4.2",",,,0",,,,,,,,,,,,
"US1INLK0008","HAMMOND 3.0 SW, IN US","41.58649","-87.52428","185.9","2009-10",,,,,,,"20",",N","15",",N",,,,,,,,,,,,,,,,,,,,,"51.3",",,N,23,",,,,,,,,,,,,,,,,,,,,,,,,,,,,,,,,,,,,,,,,,,,,,,,,,,,,,,,,,,,,,,,,,,,,,,,,,,,,,,,,,,,,,"222.4",",,,N",,,,,,,,,,,,,,,,,,,,,,
"US1INOR0011","PAOLI 5.9 S, IN US","38.47367","-86.449652","189.9","2009-10",,,,,,,"14",",N","9",",N",,,,,,,,,,,,,,,,,,,,,"77.0",",,N,09,",,,,,,,,,,,,,,,,,,,,,,,,,,,,,,,,,,,,,,,,,,,,,,,,,,,,,,,,,,,,,,,,,,,,,,,,,,,,,,,,,,,,,"221.2",",,,N",,,,,,,,,,,,,,,,,,,,,,
"US1INLK0006","CROWN POINT 6.6 ESE, IN US","41.40262","-87.232749","230.1","2009-10",,,,,,,"21","3,N","12","3,N",,,,,,,,,,,,,,,,,,,,,"52.8","3,,N,23,",,,,,,,,,,,,,,,,,,,,,,,,,,,,,,,,,,,,,,,,,,,,,,,,,,,,,,,,,,,,,,,,,,,,,,,,,,,,,,,,,,,,,"196.4","1,a,,N",,,,,,,,,,,,,,,,,,,,,,
"US1INJS0004","RENSSELAER 0.5 SSW, IN US","40.92925","-87.153569","206.0","2009-10",,,,,,,"20",",N","9",",N",,,,,,,,,,,,,,,,,,,,,"27.9",",,N,23,",,,,,,,,,,,,,,,,,,,,,,,,,,,,,,,,,,,,,,,,,,,,,,,,,,,,,,,,,,,,,,,,,,,,,,,,,,,,,,,,,,,,,"142.3",",,,N",,,,,,,,,,,,,,,,,,,,,,
"USC00124613","KINGSBURY 1 N, IN US","41.53693","-86.70209","230.1","2009-10",,,,,,,"25",",0","11",",0","0",",0","0",",0",,,,,,,,,,,,,"0",",,0,31,+","0.0",",,0,31,+","45.2",",,0,23,",,,,,,,,,,,,,,,,,,,,,,,,,,,,,,,,,,,,,,,,,,,,,,,,,,,,,,,,,,,,,,,,,,,,,,,,,,,,,,,,,,,,,"176.5",",,,0",,,"0",",,,0",,,,,,,,,,,,,,,,,,
"USC00124977","LEXINGTON 3 N, IN US","38.675","-85.60333","192.0","2009-10",,,,,"0.0",",0","14",",0","12",",0","0",",0","0",",0","0",",0","3",",0","0",",0","1",",0","0",",0","-2.8",",0,19,+","0",",,0,31,+","0.0",",,0,31,+","90.2",",,0,09,","26.1",",0,31,",,,"329.5","0",,,,,,,,,,,,,"271.2",",0",,,,,,,,,,,,,,,,,,,,,,,,,,,,,,,,,,,,,,,,,,,,,,,,,,,,,,,,,,,,,,,,,"220.7",",,,0",,,"0",",,,0","9.6",",0","15.2",",,,0","3.9",",,,0",,,,,,,,,,,,
"US1INFY0002","CONNERSVILLE 6.7 SSE, IN US","39.5666733","-85.0905","313.0","2009-10",,,,,,,"13",",N","9",",N",,,,,,,,,,,,,,,,,,,,,"22.1",",,N,28,",,,,,,,,,,,,,,,,,,,,,,,,,,,,,,,,,,,,,,,,,,,,,,,,,,,,,,,,,,,,,,,,,,,,,,,,,,,,,,,,,,,,,"143.5",",,,N",,,,,,,,,,,,,,,,,,,,,,
"US1INJS0007","RENSSELAER 1.9 SSW, IN US","40.908451","-87.158639","209.1","2009-10",,,,,,,"17",",N","10",",N",,,,,,,,,,,,,,,,,,,,,"41.4",",,N,23,",,,,,,,,,,,,,,,,,,,,,,,,,,,,,,,,,,,,,,,,,,,,,,,,,,,,,,,,,,,,,,,,,,,,,,,,,,,,,,,,,,,,,"160.5",",,,N",,,,,,,,,,,,,,,,,,,,,,
"USC00125700","MITCHELL, IN US","38.7894","-86.3963","199.6","2009-10",,,,,,,"14",",0","9",",0","0",",0","0",",0",,,,,,,,,,,,,"0",",,0,31,+","0.0",",,0,31,+","69.6",",,0,09,",,,,,,,,,,,,,,,,,,,,,,,,,,,,,,,,,,,,,,,,,,,,,,,,,,,,,,,,,,,,,,,,,,,,,,,,,,,,,,,,,,,,,"209.3",",,,0",,,"0",",,,0",,,,,,,,,,,,,,,,,,
"US1INFY0003","CONNERSVILLE 3.9 N, IN US","39.712381","-85.13606","273.1","2009-10",,,,,,,"7",",N","7",",N",,,,,,,,,,,,,,,,,,,,,"45.5",",,N,02,",,,,,,,,,,,,,,,,,,,,,,,,,,,,,,,,,,,,,,,,,,,,,,,,,,,,,,,,,,,,,,,,,,,,,,,,,,,,,,,,,,,,,"123.3",",,,N",,,,,,,,,,,,,,,,,,,,,,
"USC00123527","GREENFIELD, IN US","39.7858","-85.7611","264.9","2009-10",,,"367.8","0","0.0",",0","14",",0","8",",0","0",",0","0",",0","0",",0","4",",0","0",",0","2",",0","0",",0","-2.2",",0,18,","0",",,0,31,+","0.0",",,0,31,+","30.7",",,0,02,","22.8",",0,31,",,,"300.9","0",,,,,,,,,,,,,"266.1",",0",,,,,,,,,,,,,,,,,,,,,,,,,,,,,,,,,,,,,,,,,,,,,,,,,,,,,,,,,,,,,,,,,"146.2",",,,0",,,"0",",,,0","9.8",",0","15.0",",,,0","4.5",",,,0",,,,,,,,,,,,
"USW00003893","BLOOMINGTON MONROE CO AIRPORT, IN US","39.14317","-86.61676","253.3","2009-10","2.5",",W","394.1","W","0.0",",W","15",",W","10",",W",,,,,"0",",W","2",",W","0",",W","3",",W","0",",W","-2.1",",W,18,",,,,,"65.3",",,W,08,","21.7",",W,23,",,,"278.7","W",,,,,,,,,,,,,"244.1",",W",,,,,,,,,,,,,,,,,,,,,,,,,,,,,,,,,,,,,,,,,,,,,,,,,,,,,,,,,,,,,,,,,"205.8",",,,W",,,,,"10.5",",W","15.8",",,,W","5.1",",,,W",,,"160",",W","180",",W",,,"10.7",",W","15.7",",W"
"US1INMR0059","CARMEL 5.2 SSW, IN US","39.898219","-86.144668","235.3","2009-10",,,,,,,"10","5,N","9","5,N",,,,,,,,,,,,,,,,,,,,,"36.3","5,,N,23,",,,,,,,,,,,,,,,,,,,,,,,,,,,,,,,,,,,,,,,,,,,,,,,,,,,,,,,,,,,,,,,,,,,,,,,,,,,,,,,,,,,,,"137.9","5,,,N",,,,,,,,,,,,,,,,,,,,,,
"US1INLK0015","DYER 1.0 WNW, IN US","41.506694","-87.524821","192.0","2009-10",,,,,,,"19","2,N","14","2,N",,,,,,,,,,,,,,,,,,,,,"59.9","2,,N,23,",,,,,,,,,,,,,,,,,,,,,,,,,,,,,,,,,,,,,,,,,,,,,,,,,,,,,,,,,,,,,,,,,,,,,,,,,,,,,,,,,,,,,"215.1",",a,,N",,,,,,,,,,,,,,,,,,,,,,
"US1INJS0032","RENSSELAER 6.2 SE, IN US","40.862608","-87.080175","205.1","2009-10",,,,,,,"21",",N","11",",N","0",",N","0",",N",,,,,,,,,,,,,"0",",,N,31,+","0.0",",,N,31,+","48.8",",,N,23,",,,,,,,,,,,,,,,,,,,,,,,,,,,,,,,,,,,,,,,,,,,,,,,,,,,,,,,,,,,,,,,,,,,,,,,,,,,,,,,,,,,,,"177.0",",,,N",,,"0",",,,N",,,,,,,,,,,,,,,,,,
"US1INMG0009","MARTINSVILLE 0.7 E, IN US","39.423396","-86.409085","191.1","2009-10",,,,,,,"11",",N","9",",N",,,,,,,,,,,,,,,,,,,,,"40.6",",,N,09,",,,,,,,,,,,,,,,,,,,,,,,,,,,,,,,,,,,,,,,,,,,,,,,,,,,,,,,,,,,,,,,,,,,,,,,,,,,,,,,,,,,,,"152.9",",,,N",,,,,,,,,,,,,,,,,,,,,,
"US1INLK0019","SCHERERVILLE 2.0 WSW, IN US","41.476111","-87.481944","203.9","2009-10",,,,,,,"19",",N","14",",N",,,,,,,,,,,,,,,,,,,,,"36.8",",,N,30,",,,,,,,,,,,,,,,,,,,,,,,,,,,,,,,,,,,,,,,,,,,,,,,,,,,,,,,,,,,,,,,,,,,,,,,,,,,,,,,,,,,,,"191.4",",,,N",,,,,,,,,,,,,,,,,,,,,,
"US1INOR0022","PAOLI 5.2 NNW, IN US","38.62951","-86.497185","190.5","2009-10",,,,,,,"13",",N","9",",N",,,,,,,,,,,,,,,,,,,,,"81.3",",,N,09,",,,,,,,,,,,,,,,,,,,,,,,,,,,,,,,,,,,,,,,,,,,,,,,,,,,,,,,,,,,,,,,,,,,,,,,,,,,,,,,,,,,,,"216.8",",,,N",,,,,,,,,,,,,,,,,,,,,,
"US1INOR0021","PAOLI 1.3 E, IN US","38.557","-86.4456","191.7","2009-10",,,,,,,"14","1,N","10","1,N",,,,,,,,,,,,,,,,,,,,,"97.8","1,,N,09,",,,,,,,,,,,,,,,,,,,,,,,,,,,,,,,,,,,,,,,,,,,,,,,,,,,,,,,,,,,,,,,,,,,,,,,,,,,,,,,,,,,,,"232.4","1,,,N",,,,,,,,,,,,,,,,,,,,,,
"US1INJS0037","DE MOTTE 0.8 NNW, IN US","41.210435","-87.205425","198.1","2009-10",,,,,,,"20",",N","12",",N",,,,,,,,,,,,,,,,,,,,,"38.4",",,N,23,",,,,,,,,,,,,,,,,,,,,,,,,,,,,,,,,,,,,,,,,,,,,,,,,,,,,,,,,,,,,,,,,,,,,,,,,,,,,,,,,,,,,,"214.5",",,,N",,,,,,,,,,,,,,,,,,,,,,
"USC00126801","PENCE 1 SW, IN US","40.3522","-87.525","213.4","2009-10",,,,,,,"14","4,0","9","4,0","0",",0","0",",0",,,,,,,,,,,,,"0",",,0,31,+","0.0",",,0,31,+","49.0","4,,0,09,",,,,,,,,,,,,,,,,,,,,,,,,,,,,,,,,,,,,,,,,,,,,,,,,,,,,,,,,,,,,,,,,,,,,,,,,,,,,,,,,,,,,,"170.2",",a,,0",,,"0",",,,0",,,,,,,,,,,,,,,,,,
"USC00123777","HARTFORD CITY 4 ESE, IN US","40.4355","-85.2891","281.6","2009-10",,,"326.8","0","0.0","3,0","11",",0","9",",0",,,"0","1,0","0","3,0","3","3,0","0","3,0","2","3,0","0","3,0","-2.8","3,0,18,",,,"0.0","1,,0,31,+","33.0",",,0,24,","22.8","3,0,31,",,,"288.1","0",,,,,,,,,,,,,"241.3","3,0",,,,,,,,,,,,,,,,,,,,,,,,,,,,,,,,,,,,,,,,,,,,,,,,,,,,,,,,,,,,,,,,,"141.2",",,,0",,,"0","1,,,0","9.7","3,0","14.5","3,,,0","4.9","3,,,0",,,,,,,,,,,,
"US1INMG0001","MARTINSVILLE 1.4 NNE, IN US","39.441582","-86.413392","221.9","2009-10",,,,,,,"11","1,N","10","1,N",,,,,,,,,,,,,,,,,,,,,"40.6","1,,N,09,",,,,,,,,,,,,,,,,,,,,,,,,,,,,,,,,,,,,,,,,,,,,,,,,,,,,,,,,,,,,,,,,,,,,,,,,,,,,,,,,,,,,,"147.2","1,,,N",,,,,,,,,,,,,,,,,,,,,,
"USC00123418","GOSHEN 3 SW, IN US","41.5575","-85.8825","266.7","2009-10",,,"288.1","0","0.0","1,0","18",",0","12",",0","0","3,0","0","1,0","0",",0","1",",0","0","1,0","0","1,0","0","1,0","-0.6",",0,17,","0","3,,0,31,+","0.0","1,T,0,15,","32.8",",,0,23,","20.6","1,0,21,",,,"310.0","0",,,,,,,,,,,,,"252.1","1,0",,,,,,,,,,,,,,,,,,,,,,,,,,,,,,,,,,,,,,,,,,,,,,,,,,,,,,,,,,,,,,,,,"146.8",",,,0",,,"0","1,T,,0","9.9","1,0","14.4","1,,,0","5.4",",,,0",,,,,,,,,,,,
"US1INJS0041","FAIR OAKS 5.0 NE, IN US","41.105694","-87.170892","210.3","2009-10",,,,,,,,,,,,,,,,,,,,,,,,,,,,,,,,,,,,,,,,,,,,,,,,,,,,,,,,,,,,,,,,,,,,,,,,,,,,,,,,,,,,,,,,,,,,,,,,,,,,,,,,,,,,,,,,,,,,,"169.7","5,a,,N",,,,,,,,,,,,,,,,,,,,,,
"US1INOR0016","ORLEANS 4.5 E, IN US","38.666115","-86.369163","219.8","2009-10",,,,,,,"15",",N","9",",N",,,,,,,,,,,,,,,,,,,,,"77.0",",,N,09,",,,,,,,,,,,,,,,,,,,,,,,,,,,,,,,,,,,,,,,,,,,,,,,,,,,,,,,,,,,,,,,,,,,,,,,,,,,,,,,,,,,,,"206.2",",,,N",,,,,,,,,,,,,,,,,,,,,,
"US1INJS0023","REMINGTON 0.3 SSE, IN US","40.758436","-87.148439","223.1","2009-10",,,,,,,"15","2,N","10","2,N",,,,,,,,,,,,,,,,,,,,,"46.5","2,,N,23,",,,,,,,,,,,,,,,,,,,,,,,,,,,,,,,,,,,,,,,,,,,,,,,,,,,,,,,,,,,,,,,,,,,,,,,,,,,,,,,,,,,,,"166.6","2,,,N",,,,,,,,,,,,,,,,,,,,,,
"US1INLK0026","CROWN POINT 1.1 N, IN US","41.439267","-87.3542","217.0","2009-10",,,,,,,"19","1,N","13","1,N",,,,,,,,,,,,,,,,,,,,,"47.0","1,,N,23,",,,,,,,,,,,,,,,,,,,,,,,,,,,,,,,,,,,,,,,,,,,,,,,,,,,,,,,,,,,,,,,,,,,,,,,,,,,,,,,,,,,,,"201.6","1,,,N",,,,,,,,,,,,,,,,,,,,,,
"US1INLK0025","MUNSTER 0.8 SSE, IN US","41.535556","-87.498889","187.1","2009-10",,,,,,,"19",",N","14",",N",,,,,,,,,,,,,,,,,,,,,"58.4",",,N,23,",,,,,,,,,,,,,,,,,,,,,,,,,,,,,,,,,,,,,,,,,,,,,,,,,,,,,,,,,,,,,,,,,,,,,,,,,,,,,,,,,,,,,"205.4",",,,N",,,,,,,,,,,,,,,,,,,,,,
"US1INLK0024","CROWN POINT 2.0 WSW, IN US","41.408917","-87.389939","230.1","2009-10",,,,,,,"21",",N","15",",N",,,,,,,,,,,,,,,,,,,,,"61.0",",,N,23,",,,,,,,,,,,,,,,,,,,,,,,,,,,,,,,,,,,,,,,,,,,,,,,,,,,,,,,,,,,,,,,,,,,,,,,,,,,,,,,,,,,,,"216.1",",,,N",,,,,,,,,,,,,,,,,,,,,,
"US1INLK0027","SCHERERVILLE 0.6 SSW, IN US","41.481097","-87.452916","206.0","2009-10",,,,,,,"16","4,N","10","4,N",,,,,,,,,,,,,,,,,,,,,"57.2","4,,N,23,",,,,,,,,,,,,,,,,,,,,,,,,,,,,,,,,,,,,,,,,,,,,,,,,,,,,,,,,,,,,,,,,,,,,,,,,,,,,,,,,,,,,,"182.4","4,,,N",,,,,,,,,,,,,,,,,,,,,,
"USC00123547","GREENSBURG, IN US","39.3475","-85.4891","285.6","2009-10",,,"510.4","0","0.0",",0","10",",0","8",",0","0",",0","0",",0","0",",0","3",",0","0",",0","4",",0","0",",0","-2.2",",0,18,","0",",,0,31,+","0.0",",,0,31,+","38.1",",,0,09,","26.1",",0,31,",,,"245.4","0",,,,,,,,,,,,,"221.6",",0",,,,,,,,,,,,,,,,,,,,,,,,,,,,,,,,,,,,,,,,,,,,,,,,,,,,,,,,,,,,,,,,,"154.4",",,,0",,,"0",",,,0","11.2",",0","16.7",",,,0","5.7",",,,0",,,,,,,,,,,,
"US1INMG0011","BROOKLYN 0.5 ENE, IN US","39.5446","-86.3629","209.1","2009-10",,,,,,,"10","5,N","7","5,N",,,,,,,,,,,,,,,,,,,,,"39.6","5,,N,09,",,,,,,,,,,,,,,,,,,,,,,,,,,,,,,,,,,,,,,,,,,,,,,,,,,,,,,,,,,,,,,,,,,,,,,,,,,,,,,,,,,,,,"114.5","5,,,N",,,,,,,,,,,,,,,,,,,,,,
"US1INMG0014","GOSPORT 4.2 E, IN US","39.350765","-86.587055","220.1","2009-10",,,,,,,"13",",N","9",",N",,,,,,,,,,,,,,,,,,,,,"46.7",",,N,09,",,,,,,,,,,,,,,,,,,,,,,,,,,,,,,,,,,,,,,,,,,,,,,,,,,,,,,,,,,,,,,,,,,,,,,,,,,,,,,,,,,,,,"173.8",",,,N",,,,,,,,,,,,,,,,,,,,,,
"US1INJS0030","WHEATFIELD 4.1 SE, IN US","41.148986","-86.997414","221.9","2009-10",,,,,,,"21","3,N","12","3,N",,,,,,,,,,,,,,,,,,,,,"42.2","3,,N,23,",,,,,,,,,,,,,,,,,,,,,,,,,,,,,,,,,,,,,,,,,,,,,,,,,,,,,,,,,,,,,,,,,,,,,,,,,,,,,,,,,,,,,"185.6","3,,,N",,,,,,,,,,,,,,,,,,,,,,
"US1INJS0031","DE MOTTE 5.9 S, IN US","41.114942","-87.199703","207.0","2009-10",,,,,,,"14","5,N","7","5,N",,,,,,,,,,,,,,,,,,,,,"55.9","5,,N,23,",,,,,,,,,,,,,,,,,,,,,,,,,,,,,,,,,,,,,,,,,,,,,,,,,,,,,,,,,,,,,,,,,,,,,,,,,,,,,,,,,,,,,"134.6","5,,,N",,,,,,,,,,,,,,,,,,,,,,
"US1INMY0006","CRAWFORDSVILLE 6.5 S, IN US","39.95","-86.8833","252.1","2009-10",,,,,,,"14","1,N","8","1,N",,,,,,,,,,,,,,,,,,,,,"53.3","1,,N,09,",,,,,,,,,,,,,,,,,,,,,,,,,,,,,,,,,,,,,,,,,,,,,,,,,,,,,,,,,,,,,,,,,,,,,,,,,,,,,,,,,,,,,"162.0","1,,,N",,,,,,,,,,,,,,,,,,,,,,
"US1INLK0035","ST. JOHN 1.9 ENE, IN US","41.455907","-87.4412","221.9","2009-10",,,,,,,,,,,,,,,,,,,,,,,,,,,,,,,,,,,,,,,,,,,,,,,,,,,,,,,,,,,,,,,,,,,,,,,,,,,,,,,,,,,,,,,,,,,,,,,,,,,,,,,,,,,,,,,,,,,,,"153.7","4,a,,N",,,,,,,,,,,,,,,,,,,,,,
"US1INWY0009","COLUMBIA CITY 0.4 SW, IN US","41.15481","-85.491388","259.1","2009-10",,,,,,,,,,,,,,,,,,,,,,,,,,,,,,,,,,,,,,,,,,,,,,,,,,,,,,,,,,,,,,,,,,,,,,,,,,,,,,,,,,,,,,,,,,,,,,,,,,,,,,,,,,,,,,,,,,,,,"137.8","2,a,,N",,,,,,,,,,,,,,,,,,,,,,
"USC00120200","ANGOLA, IN US","41.6639","-85.0183","310.9","2009-10",,,"182.2","0","0.0",",0","15",",0","11",",0","0",",0","0",",0","0",",0","11",",0","0",",0","0",",0","0",",0","-3.3",",0,19,+","0",",T,0,15,","0.0",",T,0,16,+","32.5",",,0,02,","20.0",",0,31,+",,,"429.2","0",,,,,,,,,,,,,"321.1",",0",,,,,,,,,,,,,,,,,,,,,,,,,,,,,,,,,,,,,,,,,,,,,,,,,,,,,,,,,,,,,,,,,"141.7",",,,0",,,"0",",T,,0","8.0",",0","13.0",",,,0","2.9",",,,0",,,,,,,,,,,,
"USC00122620","ELNORA, IN US","38.8701","-87.0917","146.3","2009-10",,,,,"0.0",",0","15",",0","12",",0","0",",0","0",",0","0",",0","1",",0","0",",0","4",",0","0",",0","-1.1",",0,18,","0",",,0,31,+","0.0",",,0,31,+","54.1",",,0,09,","21.7",",0,06,",,,"215.4","0",,,,,,,,,,,,,"199.0",",0",,,,,,,,,,,,,,,,,,,,,,,,,,,,,,,,,,,,,,,,,,,,,,,,,,,,,,,,,,,,,,,,,"218.7",",,,0",,,"0",",,,0","11.9",",0","17.3",",,,0","6.6",",,,0",,,,,,,,,,,,
"US1INLK0033","MERRILLVILLE 1.6 ESE, IN US","41.462089","-87.296764","216.7","2009-10",,,,,,,"22",",N","13",",N",,,,,,,,,,,,,,,,,,,,,"46.7",",,N,23,",,,,,,,,,,,,,,,,,,,,,,,,,,,,,,,,,,,,,,,,,,,,,,,,,,,,,,,,,,,,,,,,,,,,,,,,,,,,,,,,,,,,,"193.4",",,,N",,,,,,,,,,,,,,,,,,,,,,
"USC00121417","CHALMERS 5 W, IN US","40.6653","-86.955","219.5","2009-10",,,"279.7","0","0.0",",0","19",",0","11",",0","0",",0","0",",0","0",",0","3",",0","0",",0","1",",0","0",",0","-1.7",",0,19,","0",",,0,31,+","0.0",",,0,31,+","41.1",",,0,23,","21.1",",0,22,",,,"347.7","0",,,,,,,,,,,,,"281.3",",0",,,,,,,,,,,,,,,,,,,,,,,,,,,,,,,,,,,,,,,,,,,,,,,,,,,,,,,,,,,,,,,,,"165.9",",,,0",,,"0",",,,0","9.3",",0","14.2",",,,0","4.3",",,,0",,,,,,,,,,,,
"USC00128290","SPENCER, IN US","39.28385","-86.77048","167.3","2009-10",,,,,,,"12",",0","9",",0","0",",0","0","1,0","0","2,0","3","2,0",,,,,,,"-1.1","2,0,19,","0",",,0,31,+","0.0","1,,0,31,+","50.8",",,0,09,",,,,,,,,,,,,,,,,,,,,,,,,,,,,,,,,,,,,,,,,,,,,,,,,,,,,,,,,,,,,,,,,,,,,,,,,,,,,,,,,,,,,,"175.4",",,,0",,,"0","1,,,0",,,,,"4.9","2,,,0",,,,,,,,,,,,
"US1INBW0010","COLUMBUS 3.2 ENE, IN US","39.219953","-85.855474","198.1","2009-10",,,,,,,"13",",N","9",",N",,,,,,,,,,,,,,,,,,,,,"69.6",",,N,09,",,,,,,,,,,,,,,,,,,,,,,,,,,,,,,,,,,,,,,,,,,,,,,,,,,,,,,,,,,,,,,,,,,,,,,,,,,,,,,,,,,,,,"203.2",",,,N",,,,,,,,,,,,,,,,,,,,,,
"US1INBW0011","TAYLORSVILLE 0.8 SSW, IN US","39.2849","-85.9526","200.9","2009-10",,,,,,,"13","1,N","11","1,N",,,,,,,,,,,,,,,,,,,,,"35.6","1,,N,09,",,,,,,,,,,,,,,,,,,,,,,,,,,,,,,,,,,,,,,,,,,,,,,,,,,,,,,,,,,,,,,,,,,,,,,,,,,,,,,,,,,,,,"164.2","1,,,N",,,,,,,,,,,,,,,,,,,,,,
"US1INWY0012","LARWILL 4.7 N, IN US","41.246772","-85.614819","274.0","2009-10",,,,,,,,,,,,,,,,,,,,,,,,,,,,,,,,,,,,,,,,,,,,,,,,,,,,,,,,,,,,,,,,,,,,,,,,,,,,,,,,,,,,,,,,,,,,,,,,,,,,,,,,,,,,,,,,,,,,,"125.6","5,a,,N",,,,,,,,,,,,,,,,,,,,,,
"US1INBW0006","COLUMBUS 8.5 WSW, IN US","39.144146","-86.047801","248.1","2009-10",,,,,,,"17","2,N","10","2,N",,,,,,,,,,,,,,,,,,,,,"52.8","2,,N,09,",,,,,,,,,,,,,,,,,,,,,,,,,,,,,,,,,,,,,,,,,,,,,,,,,,,,,,,,,,,,,,,,,,,,,,,,,,,,,,,,,,,,,"193.3","2,,,N",,,,,,,,,,,,,,,,,,,,,,
"USC00120331","ATTICA 2 E, IN US","40.2838","-87.1963","221.6","2009-10",,,,,"0.0",",0","17",",0","9",",0","0",",0","0",",0","0",",0","3",",0","0",",0","2",",0","0",",0","-2.2",",0,19,","0",",,0,31,+","0.0",",,0,31,+","52.6",",,0,09,","22.2",",0,21,",,,,,,,,,,,,,,,,,"267.7",",0",,,,,,,,,,,,,,,,,,,,,,,,,,,,,,,,,,,,,,,,,,,,,,,,,,,,,,,,,,,,,,,,,"169.9",",,,0",,,"0",",,,0","9.7",",0","14.7",",,,0","4.7",",,,0",,,,,,,,,,,,
"US1INLK0040","GARY 4.1 SSW, IN US","41.544785","-87.3848","191.7","2009-10",,,,,,,"18","2,N","16","2,N",,,,,,,,,,,,,,,,,,,,,"50.0","2,,N,23,",,,,,,,,,,,,,,,,,,,,,,,,,,,,,,,,,,,,,,,,,,,,,,,,,,,,,,,,,,,,,,,,,,,,,,,,,,,,,,,,,,,,,"222.0","2,,,N",,,,,,,,,,,,,,,,,,,,,,
"USC00121303","CARMEL 3 E, IN US","39.9617","-86.0585","229.2","2009-10",,,"340.5","0","0.0","1,0","11",",0","8",",0","0",",0","0",",0","0","1,0","5","1,0","0",",0","1",",0","0",",0","-1.7","1,0,19,+","0",",,0,31,+","0.0",",,0,31,+","35.1",",,0,09,","21.1",",0,24,",,,"300.1","0",,,,,,,,,,,,,"263.6",",0",,,,,,,,,,,,,,,,,,,,,,,,,,,,,,,,,,,,,,,,,,,,,,,,,,,,,,,,,,,,,,,,,"137.2",",,,0",,,"0",",,,0","9.6","1,0","14.9",",,,0","4.4","1,,,0",,,,,,,,,,,,
"USC00122638","ELWOOD, IN US","40.2873","-85.8453","264.0","2009-10",,,,,"0.0","2,0","13",",0","9",",0","0",",0","0",",0","0","2,0","4","2,0","0","2,0","0","2,0","0","2,0","-2.2","2,0,18,+","0",",,0,31,+","0.0",",,0,31,+","42.7",",,0,23,","20.6","2,0,24,+",,,"303.2","0",,,,,,,,,,,,,"251.3","2,0",,,,,,,,,,,,,,,,,,,,,,,,,,,,,,,,,,,,,,,,,,,,,,,,,,,,,,,,,,,,,,,,,"156.2",",,,0",,,"0",",,,0","9.7","2,0","14.6","2,,,0","4.7","2,,,0",,,,,,,,,,,,
"US1INTP0009","OTTERBEIN 2.3 SE, IN US","40.4672","-87.0611","210.9","2009-10",,,,,,,"19",",N","9",",N","0",",N","0",",N",,,,,,,,,,,,,"0",",,N,31,+","0.0",",,N,31,+","43.7",",,N,09,",,,,,,,,,,,,,,,,,,,,,,,,,,,,,,,,,,,,,,,,,,,,,,,,,,,,,,,,,,,,,,,,,,,,,,,,,,,,,,,,,,,,,"166.3",",,,N",,,"0",",,,N",,,,,,,,,,,,,,,,,,
"US1INWY0005","COLUMBIA CITY 6.6 SSE, IN US","41.0759","-85.4217","264.0","2009-10",,,,,,,"12",",N","10",",N",,,,,,,,,,,,,,,,,,,,,"23.9",",,N,02,",,,,,,,,,,,,,,,,,,,,,,,,,,,,,,,,,,,,,,,,,,,,,,,,,,,,,,,,,,,,,,,,,,,,,,,,,,,,,,,,,,,,,"129.8",",,,N",,,,,,,,,,,,,,,,,,,,,,
"US1INHS0022","BROWNSBURG 1.7 NW, IN US","39.8592734","-86.4161444","274.3","2009-10",,,,,,,"15",",N","10",",N",,,,,,,,,,,,,,,,,,,,,"41.7",",,N,09,",,,,,,,,,,,,,,,,,,,,,,,,,,,,,,,,,,,,,,,,,,,,,,,,,,,,,,,,,,,,,,,,,,,,,,,,,,,,,,,,,,,,,"152.1",",,,N",,,,,,,,,,,,,,,,,,,,,,
"US1INBW0002","EDINBURGH 1.0 SSW, IN US","39.338568","-85.974747","205.1","2009-10",,,,,,,,,,,,,,,,,,,,,,,,,,,,,,,,,,,,,,,,,,,,,,,,,,,,,,,,,,,,,,,,,,,,,,,,,,,,,,,,,,,,,,,,,,,,,,,,,,,,,,,,,,,,,,,,,,,,,"159.4","4,a,,N",,,,,,,,,,,,,,,,,,,,,,
"US1INHS0021","AVON 1.6 NNW, IN US","39.7848801","-86.39394","256.3","2009-10",,,,,,,"14",",N","9",",N",,,"0","1,N",,,,,,,,,,,,,,,"0.0","1,,N,31,+","39.6",",,N,09,",,,,,,,,,,,,,,,,,,,,,,,,,,,,,,,,,,,,,,,,,,,,,,,,,,,,,,,,,,,,,,,,,,,,,,,,,,,,,,,,,,,,,"153.0",",,,N",,,"0","1,,,N",,,,,,,,,,,,,,,,,,
"US1INWY0001","COLUMBIA CITY 6.9 N, IN US","41.25773","-85.50601","281.9","2009-10",,,,,,,"14","5,N","8","5,N",,,,,,,,,,,,,,,,,,,,,"22.9","5,,N,02,",,,,,,,,,,,,,,,,,,,,,,,,,,,,,,,,,,,,,,,,,,,,,,,,,,,,,,,,,,,,,,,,,,,,,,,,,,,,,,,,,,,,,"90.0","5,,,N",,,,,,,,,,,,,,,,,,,,,,
"US1INHY0005","NEW CASTLE 4.6 SSE, IN US","39.860041","-85.331107","328.9","2009-10",,,,,,,"13",",N","10",",N",,,,,,,,,,,,,,,,,,,,,"35.6",",,N,02,",,,,,,,,,,,,,,,,,,,,,,,,,,,,,,,,,,,,,,,,,,,,,,,,,,,,,,,,,,,,,,,,,,,,,,,,,,,,,,,,,,,,,"153.9",",,,N",,,,,,,,,,,,,,,,,,,,,,
"US1INHY0001","LEWISVILLE 1.8 ENE, IN US","39.82065","-85.3244","335.0","2009-10",,,,,,,"12",",N","9",",N",,,,,,,,,,,,,,,,,,,,,"36.8",",,N,02,",,,,,,,,,,,,,,,,,,,,,,,,,,,,,,,,,,,,,,,,,,,,,,,,,,,,,,,,,,,,,,,,,,,,,,,,,,,,,,,,,,,,,"147.5",",,,N",,,,,,,,,,,,,,,,,,,,,,
"US1INWK0012","BOONVILLE 1.4 N WBNL RADIO, IN US","38.064934","-87.273925","142.0","2009-10",,,,,,,"16",",N","10",",N",,,,,,,,,,,,,,,,,,,,,"56.1",",,N,09,",,,,,,,,,,,,,,,,,,,,,,,,,,,,,,,,,,,,,,,,,,,,,,,,,,,,,,,,,,,,,,,,,,,,,,,,,,,,,,,,,,,,,"193.5",",,,N",,,,,,,,,,,,,,,,,,,,,,
"US1INWK0014","CHANDLER 4.4 WSW, IN US","38.027395","-87.447397","114.9","2009-10",,,,,,,"17",",N","9",",N",,,,,,,,,,,,,,,,,,,,,"64.8",",,N,09,",,,,,,,,,,,,,,,,,,,,,,,,,,,,,,,,,,,,,,,,,,,,,,,,,,,,,,,,,,,,,,,,,,,,,,,,,,,,,,,,,,,,,"210.0",",,,N",,,,,,,,,,,,,,,,,,,,,,
"US1INWK0015","ELBERFELD 0.6 S, IN US","38.151985","-87.447085","128.9","2009-10",,,,,,,"14","2,N","9","2,N",,,,,,,,,,,,,,,,,,,,,"65.0","2,,N,09,",,,,,,,,,,,,,,,,,,,,,,,,,,,,,,,,,,,,,,,,,,,,,,,,,,,,,,,,,,,,,,,,,,,,,,,,,,,,,,,,,,,,,"194.8","2,,,N",,,,,,,,,,,,,,,,,,,,,,
"US1INWR0004","ATTICA 4.2 NNW, IN US","40.34011","-87.28635","202.7","2009-10",,,,,,,"17",",N","9",",N",,,,,,,,,,,,,,,,,,,,,"49.8",",,N,09,",,,,,,,,,,,,,,,,,,,,,,,,,,,,,,,,,,,,,,,,,,,,,,,,,,,,,,,,,,,,,,,,,,,,,,,,,,,,,,,,,,,,,"169.9",",,,N",,,,,,,,,,,,,,,,,,,,,,
"US1INWR0006","WILLIAMSPORT 0.4 S, IN US","40.2820933","-87.294539","190.8","2009-10",,,,,,,"20","3,N","8","3,N",,,,,,,,,,,,,,,,,,,,,"50.5","3,,N,09,",,,,,,,,,,,,,,,,,,,,,,,,,,,,,,,,,,,,,,,,,,,,,,,,,,,,,,,,,,,,,,,,,,,,,,,,,,,,,,,,,,,,,"155.5","3,,,N",,,,,,,,,,,,,,,,,,,,,,
"USR0000ITPL","TIPSAW LAKE INDIANA, IN US","38.125","-86.625","218.8","2009-10",,,"608.6","U","0.0",",U",,,,,,,,,"0",",U","1",",U","0",",U","5",",U","0",",U","-1.7",",U,18,",,,,,,,"25.0",",U,30,",,,"224.1","U",,,,,,,,,,,,,"204.9",",U",,,,,,,,,,,,,,,,,,,,,,,,,,,,,,,,,,,,,,,,,,,,,,,,,,,,,,,,,,,,,,,,,,,,,,,"11.7",",U","17.2",",,,U","6.3",",,,U",,,,,,,,,,,,
"USC00123501","GRAYSVILLE 5 WNW, IN US","39.1312","-87.6402","136.2","2009-10",,,,,,,"12",",0","11",",0","0",",0","0",",0",,,,,,,,,,,,,"0",",,0,31,+","0.0",",,0,31,+","86.9",",,0,09,",,,,,,,,,,,,,,,,,,,,,,,,,,,,,,,,,,,,,,,,,,,,,,,,,,,,,,,,,,,,,,,,,,,,,,,,,,,,,,,,,,,,,"210.7",",,,0",,,"0",",,,0",,,,,,,,,,,,,,,,,,
"USC00125923","MORRISTOWN 2 SE, IN US","39.6484","-85.678","269.7","2009-10",,,,,,,"11",",0","8",",0","0",",0","0",",0",,,,,,,,,,,,,"0",",,0,31,+","0.0",",,0,31,+","51.1",",,0,02,",,,,,,,,,,,,,,,,,,,,,,,,,,,,,,,,,,,,,,,,,,,,,,,,,,,,,,,,,,,,,,,,,,,,,,,,,,,,,,,,,,,,,"166.8",",,,0",,,"0",",,,0",,,,,,,,,,,,,,,,,,
"USC00124832","LAPEL 4 S, IN US","40.0113","-85.8436","262.1","2009-10",,,,,,,"12",",0","9",",0","0",",0","0",",0",,,,,,,,,,,,,"0",",,0,31,+","0.0",",,0,31,+","30.0",",,0,09,",,,,,,,,,,,,,,,,,,,,,,,,,,,,,,,,,,,,,,,,,,,,,,,,,,,,,,,,,,,,,,,,,,,,,,,,,,,,,,,,,,,,,"128.3",",,,0",,,"0",",,,0",,,,,,,,,,,,,,,,,,
"USC00121326","CASTLETON 2 S, IN US","39.8801","-86.0514","251.2","2009-10",,,,,,,"12",",0","12",",0","0",",0","0",",0",,,,,,,,,,,,,"0",",,0,31,+","0.0",",,0,31,+","30.7",",,0,23,",,,,,,,,,,,,,,,,,,,,,,,,,,,,,,,,,,,,,,,,,,,,,,,,,,,,,,,,,,,,,,,,,,,,,,,,,,,,,,,,,,,,,"135.5",",,,0",,,"0",",,,0",,,,,,,,,,,,,,,,,,
"USC00124837","LAPORTE, IN US","41.6116","-86.7297","246.6","2009-10",,,"303.1","0","0.0",",0","22",",0","13",",0","0",",0","0",",0","0",",0","0",",0","0",",0","0",",0","0",",0","0.6",",0,31,+","0",",,0,31,+","0.0",",,0,31,+","50.8",",,0,30,","20.6",",0,21,",,,"332.1","0",,,,,,,,,,,,,"275.0",",0",,,,,,,,,,,,,,,,,,,,,,,,,,,,,,,,,,,,,,,,,,,,,,,,,,,,,,,,,,,,,,,,,"186.3",",,,0",,,"0",",,,0","9.5",",0","13.1",",,,0","5.8",",,,0",,,,,,,,,,,,
"US1INHR0005","MILLTOWN 5.7 SSE, IN US","38.262595","-86.253962","193.9","2009-10",,,,,,,"11","2,N","9","2,N",,,,,,,,,,,,,,,,,,,,,"38.4","2,,N,31,",,,,,,,,,,,,,,,,,,,,,,,,,,,,,,,,,,,,,,,,,,,,,,,,,,,,,,,,,,,,,,,,,,,,,,,,,,,,,,,,,,,,,"250.8",",a,,N",,,,,,,,,,,,,,,,,,,,,,
"US1INWK0003","CHANDLER 1.1 S, IN US","38.02633","-87.36802","146.0","2009-10",,,,,,,"18",",N","11",",N",,,,,,,,,,,,,,,,,,,,,"68.3",",,N,09,",,,,,,,,,,,,,,,,,,,,,,,,,,,,,,,,,,,,,,,,,,,,,,,,,,,,,,,,,,,,,,,,,,,,,,,,,,,,,,,,,,,,,"217.7",",,,N",,,,,,,,,,,,,,,,,,,,,,
"USC00124715","LAFAYETTE 8 S, IN US","40.2963","-86.9027","223.1","2009-10",,,"375.8","0","0.0",",0","17",",0","9",",0","0",",0","0",",0","0",",0","1",",0","0",",0","2",",0","0",",0","-1.1",",0,18,","0",",,0,31,+","0.0",",,0,31,+","51.3",",,0,09,","21.7",",0,22,",,,"299.0","0",,,,,,,,,,,,,"253.5",",0",,,,,,,,,,,,,,,,,,,,,,,,,,,,,,,,,,,,,,,,,,,,,,,,,,,,,,,,,,,,,,,,,"167.3",",,,0",,,"0",",,,0","10.1",",0","15.1",",,,0","5.2",",,,0",,,,,,,,,,,,
"US1INWK0002","NEWBURGH 1.7 ENE, IN US","37.954201","-87.37408","143.0","2009-10",,,,,,,"17",",N","11",",N",,,,,,,,,,,,,,,,,,,,,"62.0",",,N,09,",,,,,,,,,,,,,,,,,,,,,,,,,,,,,,,,,,,,,,,,,,,,,,,,,,,,,,,,,,,,,,,,,,,,,,,,,,,,,,,,,,,,,"204.3",",,,N",,,,,,,,,,,,,,,,,,,,,,
"US1INWK0005","BOONVILLE 2.4 N, IN US","38.080463","-87.275781","143.0","2009-10",,,,,,,"15",",N","9",",N",,,,,,,,,,,,,,,,,,,,,"62.7",",,N,09,",,,,,,,,,,,,,,,,,,,,,,,,,,,,,,,,,,,,,,,,,,,,,,,,,,,,,,,,,,,,,,,,,,,,,,,,,,,,,,,,,,,,,"198.9",",,,N",,,,,,,,,,,,,,,,,,,,,,
"US1INTP0021","WEST LAFAYETTE 2.6 SW, IN US","40.421883","-86.952397","199.0","2009-10",,,,,,,"17","1,N","9","1,N",,,,,,,,,,,,,,,,,,,,,"27.4","1,,N,09,",,,,,,,,,,,,,,,,,,,,,,,,,,,,,,,,,,,,,,,,,,,,,,,,,,,,,,,,,,,,,,,,,,,,,,,,,,,,,,,,,,,,,"131.2","1,,,N",,,,,,,,,,,,,,,,,,,,,,
"US1INTP0022","LAFAYETTE 2.2 S, IN US","40.37985","-86.8665","196.9","2009-10",,,,,,,"15","3,N","8","3,N",,,,,,,,,,,,,,,,,,,,,"49.0","3,,N,09,",,,,,,,,,,,,,,,,,,,,,,,,,,,,,,,,,,,,,,,,,,,,,,,,,,,,,,,,,,,,,,,,,,,,,,,,,,,,,,,,,,,,,"170.1",",a,,N",,,,,,,,,,,,,,,,,,,,,,
"USC00127398","RIDGEVILLE 3 SSE, IN US","40.2552","-84.9958","315.5","2009-10",,,,,,,"9",",0","7",",0","0",",0","0",",0",,,,,,,,,,,,,"0",",,0,31,+","0.0",",,0,31,+","20.3",",,0,09,",,,,,,,,,,,,,,,,,,,,,,,,,,,,,,,,,,,,,,,,,,,,,,,,,,,,,,,,,,,,,,,,,,,,,,,,,,,,,,,,,,,,,"89.2",",,,0",,,"0",",,,0",,,,,,,,,,,,,,,,,,
"US1INFN0003","COVINGTON 0.4 WNW, IN US","40.142188","-87.397937","173.1","2009-10",,,,,,,,,,,,,,,,,,,,,,,,,,,,,,,,,,,,,,,,,,,,,,,,,,,,,,,,,,,,,,,,,,,,,,,,,,,,,,,,,,,,,,,,,,,,,,,,,,,,,,,,,,,,,,,,,,,,,"174.8","4,a,,N",,,,,,,,,,,,,,,,,,,,,,
"US1INFN0005","ATTICA 3.4 SSW, IN US","40.244119","-87.276538","189.9","2009-10",,,,,,,"17","4,N","9","4,N",,,,,,,,,,,,,,,,,,,,,"49.8","4,,N,09,",,,,,,,,,,,,,,,,,,,,,,,,,,,,,,,,,,,,,,,,,,,,,,,,,,,,,,,,,,,,,,,,,,,,,,,,,,,,,,,,,,,,,"168.5","4,,,N",,,,,,,,,,,,,,,,,,,,,,
"USC00122825","FARMLAND 5 NNW, IN US","40.2538","-85.1484","294.1","2009-10",,,,,"0.0",",0","13",",0","7",",0","0",",0","0",",0","0",",0","5",",0","0",",0","3",",0","0",",0","-5.0",",0,18,","0",",,0,31,+","0.0",",,0,31,+","57.9",",,0,02,","24.4",",0,31,",,,"325.6","0","12.8",",,,0,3,2","16.7","1,,,0,3,3","15.6","1,,,0,5,2",,,,,,,"274.4",",0","18.9",",,,0,3,2","18.3","1,,,0,3,3","20.0",",,,0,5,2",,,,,,,"4.4",",,,0,3,2","8.9","1,,,0,3,3","8.3","1,,,0,5,2",,,,,,,"7.8",",,,0,3,2","10.0","1,,,0,3,3","11.7",",,,0,5,2",,,,,,,"9.1",",,,0,3,2","12.8","1,,,0,3,3","12.1","1,,,0,5,2",,,,,,,,,"13.1",",,,0,3,2","14.1","1,,,0,3,3","15.0",",,,0,5,2",,,,,,,,,"157.6",",,,0",,,"0",",,,0","9.5",",0","15.4",",,,0","3.6",",,,0",,,,,,,,,,,,
"US1INJH0012","GREENWOOD 4.8 WSW, IN US","39.5858","-86.1947","211.5","2009-10",,,,,,,"14",",N","9",",N",,,,,,,,,,,,,,,,,,,,,"37.1",",,N,09,",,,,,,,,,,,,,,,,,,,,,,,,,,,,,,,,,,,,,,,,,,,,,,,,,,,,,,,,,,,,,,,,,,,,,,,,,,,,,,,,,,,,,"149.0",",,,N",,,,,,,,,,,,,,,,,,,,,,
"USC00121739","COLUMBIA CITY, IN US","41.1452","-85.4898","254.2","2009-10",,,,,"0.0",",0","13",",0","7",",0","0",",0","0",",0","0",",0","5",",0","0",",0","0",",0","0",",0","-2.2",",0,19,+","0",",,0,31,+","0.0",",,0,31,+","21.3",",,0,30,","20.0",",0,23,+",,,"391.0","0","14.4",",,,0,3,2","11.7",",,,0,5,2",,,,,,,,,"313.9",",0","23.3",",,,0,3,2","20.6",",,,0,5,2",,,,,,,,,"-0.6",",,,0,3,2","4.4",",,,0,5,2",,,,,,,,,"8.9",",,,0,3,2","6.1",",,,0,5,2",,,,,,,,,"6.2",",,,0,3,2","6.9",",,,0,5,2",,,,,,,,,,,"17.7",",,,0,3,2","14.6",",,,0,5,2",,,,,,,,,,,"105.1",",,,0",,,"0",",,,0","8.2",",0","13.3",",,,0","3.1",",,,0",,,,,,,,,,,,
